7GGA,172102.400,3732.5826,N,12216.0995,W,2,7,1.17,13.1,M,-25.6,M,0000,0000*5E
6.0995,W,2,7,1.17,13.1,M,-25.6,M,0000,0000*59
$GPGGA,172102.400,3732.5826,N,12216.0995,W,2,7,1.17,13.1,M,-25.6,M,0000,0000*5E
GPS parser
¥T(KLLLL—›˜0,373.82Xœ±Å’’Š²r‚ªbÅ$t)	)I“)©©S“		&LLL•šC
A5Q$GPGGA,172103.800,3732.5821,N,12216.0995,W,2,7,1.17,12.9,M,-25.6,M,0000,0000*5D
$PMTK001,300,*$GPGGA,172104.000,3732.5821,N,12216.0995,W,2,7,1.17,12.9,M,-25.6,M,0000,0000*52
$GPGGA,172104.200,3732.5821,N,12216.0996,W,2,7,1.17,12.8,M,-25.6,M,0000,0000*52
$GPGGA,172104.400,3732.5821,N,12216.0996,W,2,7,1.17,12.8,M,-25.6,M,0000,0000*54
$GPGGA,172104.600,3732.5821,N,12216.0996,W,2,7,1.17,12.8,M,-25.6,M,0000,0000*56
$GPGGA,172104.800,3732.5821,N,12216.0996,W,2,7,1.17,12.8,M,-25.6,M,0000,0000*58
$GPGGA,172105.000,3732.5821,N,12216.0996,W,2,7,1.18,12.7,M,-25.6,M,0000,0000*51
$GPGGA,172105.200,3732.5821,N,12216.0996,W,2,7,1.17,12.7,M,-25.6,M,0000,0000*5C
$GPGGA,172105.400,3732.5821,N,12216.0996,W,2,7,1.17,12.7,M,-25.6,M,0000,0000*5A
$GPGGA,172105.600,3732.5821,N,12216.0995,W,2,7,1.17,12.7,M,-25.6,M,0000,0000*5B
$GPGGA,172105.800,3732.5820,N,12216.0994,W,2,7,1.17,12.7,M,-25.6,M,0000,0000*55
$GPGGA,172106.000,3732.5821,N,12216.0993,W,2,7,1.17,12.7,M,-25.6,M,0000,0000*58
$GPGGA,172106.200,3732.5821,N,12216.0993,W,2,7,1.17,12.7,M,-25.6,M,0000,0000*5A
$GPGGA,172106.400,3732.5820,N,12216.0993,W,2,7,1.17,12.7,M,-25.6,M,0000,0000*5D
$GPGGA,172106.600,3732.5820,N,12216.0992,W,2,7,1.17,12.7,M,-25.6,M,0000,0000*5E
$GPGGA,172106.800,3732.5820,N,12216.0992,W,2,6,2.32,12.7,M,-25.6,M,0000,0000*55
$GPGGA,172107.000,3732.5820,N,12216.0992,W,2,6,2.32,12.7,M,-25.6,M,0000,0000*5C
$GPGGA,172107.200,3732.5820,N,12216.0992,W,2,6,2.32,12.7,M,-25.6,M,0000,0000*5E
$GPGGA,172107.400,3732.5820,N,12216.0991,W,2,6,2.32,12.7,M,-25.6,M,0000,0000*5B
$GPGGA,172107.600,3732.5820,N,12216.0991,W,2,6,2.32,12.7,M,-25.6,M,0000,0000*59
$GPGGA,172107.800,3732.5821,N,12216.0991,W,2,6,2.32,12.7,M,-25.6,M,0000,0000*56
$GPGGA,172108.000,3732.5821,N,12216.0990,W,2,6,2.32,12.7,M,-25.6,M,0000,0000*50
$GPGGA,172108.200,3732.5821,N,12216.0990,W,2,6,2.32,12.6,M,-25.6,M,0000,0000*53
$GPGGA,172108.400,3732.5821,N,12216.0990,W,2,6,2.32,12.6,M,-25.6,M,0000,0000*55
$GPGGA,172108.600,3732.5821,N,12216.0990,W,2,6,2.32,12.7,M,-25.6,M,0000,0000*56
$GPGGA,172108.800,3732.5821,N,12216.0990,W,2,6,2.32,12.7,M,-25.6,M,0000,0000*58
$GPGGA,172109.000,3732.5820,N,12216.0990,W,2,6,2.32,12.7,M,-25.6,M,0000,0000*50
$GPGGA,172109.200,3732.5820,N,12216.0990,W,2,6,2.32,12.7,M,-25.6,M,0000,0000*52
$GPGGA,172109.400,3732.5820,N,12216.0990,W,2,6,2.32,12.7,M,-25.6,M,0000,0000*54
$GPGGA,172109.600,3732.5820,N,12216.0990,W,2,6,2.32,12.7,M,-25.6,M,0000,0000*56
$GPGGA,172109.800,3732.5820,N,12216.0990,W,2,6,2.32,12.7,M,-25.6,M,0000,0000*58
$GPGGA,172110.000,3732.5820,N,12216.0990,W,2,6,2.32,12.7,M,-25.6,M,0000,0000*58
$GPGGA,172110.200,3732.5820,N,12216.0990,W,2,6,2.32,12.7,M,-25.6,M,0000,0000*5A
$GPGGA,172110.400,3732.5819,N,12216.0990,W,2,6,2.32,12.7,M,-25.6,M,0000,0000*56
$GPGGA,172110.600,3732.5819,N,12216.0990,W,2,6,2.32,12.7,M,-25.6,M,0000,0000*54
$GPGGA,172110.800,3732.5819,N,12216.0990,W,2,6,2.32,12.7,M,-25.6,M,0000,0000*5A
$GPGGA,172111.000,3732.5819,N,12216.0990,W,2,6,2.32,12.7,M,-25.6,M,0000,0000*53
$GPGGA,172111.200,3732.5819,N,12216.0990,W,2,6,2.32,12.7,M,-25.6,M,0000,0000*51
$GPGGA,172111.400,3732.5819,N,12216.0990,W,2,6,2.32,12.7,M,-25.6,M,0000,0000*57
$GPGGA,172111.600,3732.5818,N,12216.0990,W,2,6,2.32,12.7,M,-25.6,M,0000,0000*54
$GPGGA,172111.800,3732.5818,N,12216.0990,W,2,6,2.32,12.7,M,-25.6,M,0000,0000*5A
$GPGGA,172112.000,3732.5818,N,12216.0990,W,2,6,2.32,12.7,M,-25.6,M,0000,0000*51
$GPGGA,172112.200,3732.5818,N,12216.0990,W,2,6,2.32,12.7,M,-25.6,M,0000,0000*53
$GPGGA,172112.400,3732.5818,N,12216.0990,W,2,6,2.32,12.7,M,-25.6,M,0000,0000*55
$GPGGA,172112.600,3732.5818,N,12216.0989,W,2,6,2.32,12.7,M,-25.6,M,0000,0000*5F
$GPGGA,172112.800,3732.5818,N,12216.0989,W,2,6,2.32,12.7,M,-25.6,M,0000,0000*51
$GPGGA,172113.000,3732.5818,N,12216.0989,W,2,6,2.32,12.7,M,-25.6,M,0000,0000*58
$GPGGA,172113.200,3732.5818,N,12216.0989,W,2,6,2.32,12.7,M,-25.6,M,0000,0000*5A
$GPGGA,172113.400,3732.5818,N,12216.0989,W,2,6,2.32,12.7,M,-25.6,M,0000,0000*5C
$GPGGA,172113.600,3732.5817,N,12216.0989,W,2,6,2.32,12.7,M,-25.6,M,0000,0000*51
$GPGGA,172113.800,3732.5817,N,12216.0989,W,2,6,2.32,12.7,M,-25.6,M,0000,0000*5F
$GPGGA,172114.000,3732.5817,N,12216.0989,W,2,6,2.32,12.7,M,-25.6,M,0000,0000*50
$GPGGA,172114.200,3732.5817,N,12216.0989,W,2,6,2.32,12.7,M,-25.6,M,0000,0000*52
$GPGGA,172114.400,3732.5818,N,12216.0989,W,2,6,2.32,12.7,M,-25.6,M,0000,0000*5B
$GPGGA,172114.600,3732.5818,N,12216.0989,W,2,6,2.32,12.7,M,-25.6,M,0000,0000*59
$GPGGA,172114.800,3732.5818,N,12216.0989,W,2,6,2.32,12.7,M,-25.6,M,0000,0000*57
$GPGGA,172115.000,3732.5818,N,12216.0989,W,2,6,2.32,12.7,M,-25.6,M,0000,0000*5E
$GPGGA,172115.200,3732.5818,N,12216.0989,W,2,6,2.32,12.7,M,-25.6,M,0000,0000*5C
$GPGGA,172115.400,3732.5818,N,12216.0989,W,2,6,2.32,12.7,M,-25.6,M,0000,0000*5A
$GPGGA,172115.600,3732.5818,N,12216.0989,W,2,6,2.32,12.7,M,-25.6,M,0000,0000*58
$GPGGA,172115.800,3732.5818,N,12216.0988,W,2,6,2.32,12.7,M,-25.6,M,0000,0000*57
$GPGGA,172116.000,3732.5818,N,12216.0988,W,2,6,2.32,12.7,M,-25.6,M,0000,0000*5C
$GPGGA,172116.200,3732.5818,N,12216.0988,W,2,6,2.32,12.7,M,-25.6,M,0000,0000*5E
$GPGGA,172116.400,3732.5818,N,12216.0988,W,2,6,2.32,12.7,M,-25.6,M,0000,0000*58
$GPGGA,172116.600,3732.5818,N,12216.0988,W,2,6,2.32,12.7,M,-25.6,M,0000,0000*5A
$GPGGA,172116.800,3732.5818,N,12216.0988,W,2,6,2.32,12.7,M,-25.6,M,0000,0000*54
$GPGGA,172117.000,3732.5818,N,12216.0988,W,2,6,2.32,12.7,M,-25.6,M,0000,0000*5D
$GPGGA,172117.200,3732.5818,N,12216.0988,W,2,6,2.32,12.7,M,-25.6,M,0000,0000*5F
$GPGGA,172117.400,3732.5819,N,12216.0988,W,2,6,2.32,12.7,M,-25.6,M,0000,0000*58
$GPGGA,172117.600,3732.5819,N,12216.0987,W,2,6,2.32,12.7,M,-25.6,M,0000,0000*55
$GPGGA,172117.800,3732.5819,N,12216.0987,W,2,6,2.32,12.7,M,-25.6,M,0000,0000*5B
$GPGGA,172118.000,3732.5819,N,12216.0987,W,2,6,2.32,12.7,M,-25.6,M,0000,0000*5C
$GPGGA,172118.200,3732.5819,N,12216.0987,W,2,6,2.32,12.7,M,-25.6,M,0000,0000*5E
$GPGGA,172118.400,3732.5819,N,12216.0987,W,2,6,2.32,12.7,M,-25.6,M,0000,0000*58
$GPGGA,172118.600,3732.5819,N,12216.0987,W,2,6,2.32,12.7,M,-25.6,M,0000,0000*5A
$GPGGA,172118.800,3732.5819,N,12216.0986,W,2,7,1.79,12.7,M,-25.6,M,0000,0000*58
$GPGGA,172119.000,3732.5819,N,12216.0986,W,2,8,1.07,12.7,M,-25.6,M,0000,0000*57
$GPGGA,172119.200,3732.5820,N,12216.0986,W,2,8,1.07,12.7,M,-25.6,M,0000,0000*5F
$GPGGA,172119.400,3732.5820,N,12216.0986,W,2,8,1.07,12.7,M,-25.6,M,0000,0000*59
$GPGGA,172119.600,3732.5820,N,12216.0985,W,2,8,1.07,12.7,M,-25.6,M,0000,0000*58
$GPGGA,172119.800,3732.5823,N,12216.0983,W,2,8,1.07,12.7,M,-25.6,M,0000,0000*53
$GPGGA,172120.000,3732.5827,N,12216.0980,W,2,8,1.07,12.7,M,-25.6,M,0000,0000*56
$GPGGA,172120.200,3732.5832,N,12216.0977,W,2,8,1.07,12.7,M,-25.6,M,0000,0000*58
$GPGGA,172120.400,3732.5842,N,12216.0974,W,2,8,1.07,12.7,M,-25.6,M,0000,0000*5A
$GPGGA,172120.600,3732.5847,N,12216.0972,W,2,8,1.07,12.8,M,-25.6,M,0000,0000*54
$GPGGA,172120.800,3732.5859,N,12216.0968,W,2,8,1.07,12.8,M,-25.6,M,0000,0000*5E
$GPGGA,172121.000,3732.5863,N,12216.0962,W,2,8,1.07,12.8,M,-25.6,M,0000,0000*54
$GPGGA,172121.200,3732.5868,N,12216.0957,W,2,8,1.07,12.8,M,-25.6,M,0000,0000*5B
$GPGGA,172121.400,3732.5871,N,12216.0953,W,2,8,1.07,12.7,M,-25.6,M,0000,0000*5E
$GPGGA,172121.600,3732.5874,N,12216.0949,W,2,8,1.07,12.7,M,-25.6,M,0000,0000*52
$GPGGA,172121.800,3732.5878,N,12216.0944,W,2,8,1.07,12.7,M,-25.6,M,0000,0000*5D
$GPGGA,172122.000,3732.5881,N,12216.0940,W,2,8,1.07,12.7,M,-25.6,M,0000,0000*54
$GPGGA,172122.200,3732.5885,N,12216.0935,W,2,8,1.07,12.7,M,-25.6,M,0000,0000*50
$GPGGA,172122.400,3732.5889,N,12216.0930,W,2,8,1.07,12.7,M,-25.6,M,0000,0000*5F
$GPGGA,172122.600,3732.5893,N,12216.0924,W,2,8,1.07,12.7,M,-25.6,M,0000,0000*53
$GPGGA,172122.800,3732.5898,N,12216.0919,W,2,8,1.07,12.7,M,-25.6,M,0000,0000*58
$GPGGA,172123.000,3732.5902,N,12216.0913,W,2,8,1.07,12.7,M,-25.6,M,0000,0000*59
$GPGGA,172123.200,3732.5907,N,12216.0908,W,2,8,1.07,12.7,M,-25.6,M,0000,0000*54
$GPGGA,172123.400,3732.5911,N,12216.0902,W,2,8,1.07,12.7,M,-25.6,M,0000,0000*5F
$GPGGA,172123.600,3732.5916,N,12216.0897,W,2,8,1.07,12.7,M,-25.6,M,0000,0000*57
$GPGGA,172123.800,3732.5921,N,12216.0891,W,2,8,1.07,12.7,M,-25.6,M,0000,0000*5B
$GPGGA,172124.000,3732.5925,N,12216.0885,W,2,8,1.07,12.6,M,-25.6,M,0000,0000*54
$GPGGA,172124.200,3732.5930,N,12216.0879,W,2,8,1.07,12.6,M,-25.6,M,0000,0000*51
$GPGGA,172124.400,3732.5935,N,12216.0872,W,2,8,1.07,12.6,M,-25.6,M,0000,0000*59
$GPGGA,172124.600,3732.5940,N,12216.0866,W,2,8,1.07,12.6,M,-25.6,M,0000,0000*5C
$GPGGA,172124.800,3732.5945,N,12216.0859,W,2,8,1.07,12.6,M,-25.6,M,0000,0000*5B
$GPGGA,172125.000,3732.5950,N,12216.0853,W,2,9,0.95,12.6,M,-25.6,M,0000,0000*57
$GPGGA,172125.200,3732.5956,N,12216.0846,W,2,9,0.95,12.6,M,-25.6,M,0000,0000*57
$GPGGA,172125.400,3732.5961,N,12216.0839,W,2,9,0.95,12.6,M,-25.6,M,0000,0000*5D
$GPGGA,172125.600,3732.5967,N,12216.0833,W,2,9,0.95,12.5,M,-25.6,M,0000,0000*50
$GPGGA,172125.800,3732.5973,N,12216.0826,W,2,9,0.95,12.5,M,-25.6,M,0000,0000*5F
$GPGGA,172126.000,3732.5979,N,12216.0819,W,2,9,0.95,12.5,M,-25.6,M,0000,0000*52
$GPGGA,172126.200,3732.5985,N,12216.0812,W,2,9,0.95,12.5,M,-25.6,M,0000,0000*58
$GPGGA,172126.400,3732.5991,N,12216.0806,W,2,9,0.95,12.5,M,-25.6,M,0000,0000*5E
$GPGGA,172126.600,3732.5997,N,12216.0799,W,2,9,0.95,12.4,M,-25.6,M,0000,0000*52
$GPGGA,172126.800,3732.6003,N,12216.0792,W,2,9,0.95,12.4,M,-25.6,M,0000,0000*50
$GPGGA,172127.000,3732.6009,N,12216.0785,W,2,9,0.95,12.4,M,-25.6,M,0000,0000*55
$GPGGA,172127.200,3732.6015,N,12216.0778,W,2,9,0.95,12.4,M,-25.6,M,0000,0000*58
$GPGGA,172127.400,3732.6022,N,12216.0771,W,2,9,0.95,12.3,M,-25.6,M,0000,0000*54
$GPGGA,172127.600,3732.6028,N,12216.0764,W,2,9,0.95,12.3,M,-25.6,M,0000,0000*58
$GPGGA,172127.800,3732.6034,N,12216.0756,W,2,9,0.95,12.3,M,-25.6,M,0000,0000*5A
$GPGGA,172128.000,3732.6039,N,12216.0748,W,2,9,0.95,12.2,M,-25.6,M,0000,0000*5E
$GPGGA,172128.200,3732.6044,N,12216.0741,W,2,9,0.95,12.2,M,-25.6,M,0000,0000*5F
$GPGGA,172128.400,3732.6050,N,12216.0732,W,2,9,0.95,12.2,M,-25.6,M,0000,0000*58
$GPGGA,172128.600,3732.6054,N,12216.0724,W,2,9,0.95,12.2,M,-25.6,M,0000,0000*59
$GPGGA,172128.800,3732.6059,N,12216.0715,W,2,9,0.95,12.1,M,-25.6,M,0000,0000*5B
$GPGGA,172129.000,3732.6063,N,12216.0706,W,2,9,0.95,12.1,M,-25.6,M,0000,0000*59
$GPGGA,172129.200,3732.6067,N,12216.0697,W,2,9,0.95,12.1,M,-25.6,M,0000,0000*56
$GPGGA,172129.400,3732.6071,N,12216.0688,W,2,9,0.95,12.1,M,-25.6,M,0000,0000*59
$GPGGA,172129.600,3732.6075,N,12216.0679,W,2,9,0.95,12.0,M,-25.6,M,0000,0000*50
$GPGGA,172129.800,3732.6079,N,12216.0670,W,2,9,0.95,12.0,M,-25.6,M,0000,0000*5B
$GPGGA,172130.000,3732.6083,N,12216.0661,W,2,9,0.95,12.0,M,-25.6,M,0000,0000*5E
$GPGGA,172130.200,3732.6087,N,12216.0652,W,2,9,0.95,12.0,M,-25.6,M,0000,0000*58
$GPGGA,172130.400,3732.6091,N,12216.0643,W,2,9,0.95,11.9,M,-25.6,M,0000,0000*53
$GPGGA,172130.600,3732.6095,N,12216.0634,W,2,9,0.95,11.9,M,-25.6,M,0000,0000*55
$GPGGA,172130.800,3732.6098,N,12216.0625,W,2,9,0.95,11.8,M,-25.6,M,0000,0000*57
$GPGGA,172131.000,3732.6101,N,12216.0616,W,2,9,0.95,11.8,M,-25.6,M,0000,0000*5F
$GPGGA,172131.200,3732.6104,N,12216.0607,W,2,9,0.95,11.7,M,-25.6,M,0000,0000*57
$GPGGA,172131.400,3732.6107,N,12216.0598,W,2,9,0.95,11.6,M,-25.6,M,0000,0000*56
$GPGGA,172131.600,3732.6109,N,12216.0589,W,2,9,0.95,11.6,M,-25.6,M,0000,0000*5A
$GPGGA,172131.800,3732.6111,N,12216.0580,W,2,9,0.95,11.5,M,-25.6,M,0000,0000*57
$GPGGA,172132.000,3732.6112,N,12216.0571,W,2,8,0.98,11.5,M,-25.6,M,0000,0000*5D
$GPGGA,172132.200,3732.6113,N,12216.0561,W,2,8,0.98,11.4,M,-25.6,M,0000,0000*5E
$GPGGA,172132.400,3732.6113,N,12216.0552,W,2,8,0.98,11.3,M,-25.6,M,0000,0000*5F
$GPGGA,172132.600,3732.6112,N,12216.0544,W,2,8,0.98,11.3,M,-25.6,M,0000,0000*5B
$GPGGA,172132.800,3732.6112,N,12216.0535,W,2,8,1.07,11.2,M,-25.6,M,0000,0000*55
$GPGGA,172133.000,3732.6111,N,12216.0526,W,2,8,1.07,11.2,M,-25.6,M,0000,0000*5D
$GPGGA,172133.200,3732.6109,N,12216.0518,W,2,8,1.07,11.2,M,-25.6,M,0000,0000*5B
$GPGGA,172133.400,3732.6107,N,12216.0510,W,2,7,1.11,11.1,M,-25.6,M,0000,0000*50
$GPGGA,172133.600,3732.6105,N,12216.0502,W,2,7,1.11,11.1,M,-25.6,M,0000,0000*53
$GPGGA,172133.800,3732.6102,N,12216.0494,W,2,7,1.11,11.1,M,-25.6,M,0000,0000*54
$GPGGA,172134.000,3732.6099,N,12216.0486,W,2,7,1.11,11.0,M,-25.6,M,0000,0000*5A
$GPGGA,172134.200,3732.6096,N,12216.0478,W,2,7,1.11,11.0,M,-25.6,M,0000,0000*56
$GPGGA,172134.400,3732.6092,N,12216.0470,W,2,7,1.11,11.0,M,-25.6,M,0000,0000*5C
$GPGGA,172134.600,3732.6088,N,12216.0463,W,2,7,1.11,10.9,M,-25.6,M,0000,0000*5F
$GPGGA,172134.800,3732.6084,N,12216.0456,W,2,8,1.07,10.9,M,-25.6,M,0000,0000*53
$GPGGA,172135.000,3732.6080,N,12216.0449,W,2,8,1.07,10.8,M,-25.6,M,0000,0000*51
$GPGGA,172135.200,3732.6076,N,12216.0442,W,2,8,1.07,10.8,M,-25.6,M,0000,0000*51
$GPGGA,172135.400,3732.6072,N,12216.0435,W,2,8,1.07,10.8,M,-25.6,M,0000,0000*53
$GPGGA,172135.600,3732.6068,N,12216.0429,W,2,8,1.07,10.8,M,-25.6,M,0000,0000*57
$GPGGA,172135.800,3732.6064,N,12216.0423,W,2,8,1.07,10.8,M,-25.6,M,0000,0000*5F
$GPGGA,172136.000,3732.6061,N,12216.0418,W,2,8,1.07,10.7,M,-25.6,M,0000,0000*56
$GPGGA,172136.200,3732.6058,N,12216.0412,W,2,8,1.07,10.7,M,-25.6,M,0000,0000*54
$GPGGA,172136.400,3732.6055,N,12216.0407,W,2,8,1.07,10.7,M,-25.6,M,0000,0000*5B
$GPGGA,172136.600,3732.6052,N,12216.0402,W,2,9,0.95,10.7,M,-25.6,M,0000,0000*50
$GPGGA,172136.800,3732.6050,N,12216.0398,W,2,9,0.95,10.7,M,-25.6,M,0000,0000*58
$GPGGA,172137.000,3732.6048,N,12216.0393,W,2,8,1.07,10.7,M,-25.6,M,0000,0000*58
$GPGGA,172137.200,3732.6046,N,12216.0389,W,2,8,1.07,10.7,M,-25.6,M,0000,0000*5F
$GPGGA,172137.400,3732.6044,N,12216.0385,W,2,8,1.07,10.7,M,-25.6,M,0000,0000*57
$GPGGA,172137.600,3732.6042,N,12216.0380,W,2,8,1.07,10.7,M,-25.6,M,0000,0000*56
$GPGGA,172137.800,3732.6040,N,12216.0375,W,2,9,0.95,10.7,M,-25.6,M,0000,0000*5B
$GPGGA,172138.000,3732.6038,N,12216.0371,W,2,9,0.95,10.7,M,-25.6,M,0000,0000*57
$GPGGA,172138.200,3732.6036,N,12216.0366,W,2,9,0.95,10.6,M,-25.6,M,0000,0000*5C
$GPGGA,172138.400,3732.6033,N,12216.0361,W,2,9,0.95,10.6,M,-25.6,M,0000,0000*58
$GPGGA,172138.600,3732.6031,N,12216.0356,W,2,9,0.95,10.6,M,-25.6,M,0000,0000*5C
$GPGGA,172138.800,3732.6029,N,12216.0350,W,2,9,0.95,10.6,M,-25.6,M,0000,0000*5D
$GPGGA,172139.000,3732.6026,N,12216.0344,W,2,9,0.95,10.6,M,-25.6,M,0000,0000*5E
$GPGGA,172139.200,3732.6024,N,12216.0339,W,2,8,1.07,10.6,M,-25.6,M,0000,0000*5F
$GPGGA,172139.400,3732.6021,N,12216.0332,W,2,8,1.07,10.6,M,-25.6,M,0000,0000*57
$GPGGA,172139.600,3732.6019,N,12216.0326,W,2,8,1.07,10.7,M,-25.6,M,0000,0000*5A
$GPGGA,172139.800,3732.6016,N,12216.0319,W,2,8,1.07,10.7,M,-25.6,M,0000,0000*57
$GPGGA,172140.000,3732.6013,N,12216.0312,W,2,8,1.07,10.7,M,-25.6,M,0000,0000*5F
$GPGGA,172140.200,3732.6010,N,12216.0305,W,2,8,1.07,10.7,M,-25.6,M,0000,0000*58
$GPGGA,172140.400,3732.6008,N,12216.0297,W,2,8,1.07,10.7,M,-25.6,M,0000,0000*5D
$GPGGA,172140.600,3732.6005,N,12216.0290,W,2,8,1.07,10.7,M,-25.6,M,0000,0000*55
$GPGGA,172140.800,3732.6003,N,12216.0282,W,2,8,1.07,10.7,M,-25.6,M,0000,0000*5E
$GPGGA,172141.000,3732.6000,N,12216.0274,W,2,8,1.07,10.6,M,-25.6,M,0000,0000*5C
$GPGGA,172141.200,3732.5997,N,12216.0265,W,2,8,1.07,10.6,M,-25.6,M,0000,0000*5A
$GPGGA,172141.400,3732.5994,N,12216.0257,W,2,8,1.07,10.6,M,-25.6,M,0000,0000*5E
$GPGGA,172141.600,3732.5991,N,12216.0248,W,2,8,1.07,10.6,M,-25.6,M,0000,0000*57
$GPGGA,172141.800,3732.5988,N,12216.0238,W,2,8,1.07,10.6,M,-25.6,M,0000,0000*56
$GPGGA,172142.000,3732.5985,N,12216.0229,W,2,8,1.07,10.6,M,-25.6,M,0000,0000*50
$GPGGA,172142.200,3732.5982,N,12216.0219,W,2,8,1.07,10.5,M,-25.6,M,0000,0000*55
$GPGGA,172142.400,3732.5978,N,12216.0210,W,2,9,0.95,10.5,M,-25.6,M,0000,0000*54
$GPGGA,172142.600,3732.5975,N,12216.0200,W,2,7,1.10,10.4,M,-25.6,M,0000,0000*59
$GPGGA,172142.800,3732.5972,N,12216.0190,W,2,7,1.11,10.4,M,-25.6,M,0000,0000*5B
$GPGGA,172143.000,3732.5969,N,12216.0179,W,2,7,1.11,10.3,M,-25.6,M,0000,0000*58
$GPGGA,172143.200,3732.5966,N,12216.0169,W,2,9,0.95,10.3,M,-25.6,M,0000,0000*57
$GPGGA,172143.400,3732.5962,N,12216.0158,W,2,9,0.95,10.3,M,-25.6,M,0000,0000*57
$GPGGA,172143.600,3732.5959,N,12216.0148,W,2,8,1.07,10.2,M,-25.6,M,0000,0000*56
$GPGGA,172143.800,3732.5955,N,12216.0138,W,2,8,1.07,10.2,M,-25.6,M,0000,0000*53
$GPGGA,172144.000,3732.5952,N,12216.0127,W,2,7,1.11,10.1,M,-25.6,M,0000,0000*5E
$GPGGA,172144.200,3732.5949,N,12216.0117,W,2,9,0.95,10.0,M,-25.6,M,0000,0000*57
$GPGGA,172144.400,3732.5945,N,12216.0107,W,2,9,0.95,10.0,M,-25.6,M,0000,0000*5C
$GPGGA,172144.600,3732.5942,N,12216.0096,W,2,8,1.07,9.9,M,-25.6,M,0000,0000*6A
$GPGGA,172144.800,3732.5939,N,12216.0086,W,2,8,1.07,9.9,M,-25.6,M,0000,0000*69
$GPGGA,172145.000,3732.5936,N,12216.0075,W,2,9,0.95,9.9,M,-25.6,M,0000,0000*68
$GPGGA,172145.200,3732.5932,N,12216.0065,W,2,9,0.95,9.8,M,-25.6,M,0000,0000*6E
$GPGGA,172145.400,3732.5929,N,12216.0054,W,2,7,1.11,9.8,M,-25.6,M,0000,0000*63
$GPGGA,172145.600,3732.5926,N,12216.0044,W,2,7,1.11,9.7,M,-25.6,M,0000,0000*60
$GPGGA,172145.800,3732.5923,N,12216.0033,W,2,7,1.11,9.7,M,-25.6,M,0000,0000*6B
$GPGGA,172146.000,3732.5920,N,12216.0022,W,2,7,1.11,9.7,M,-25.6,M,0000,0000*63
$GPGGA,172146.200,3732.5917,N,12216.0012,W,2,7,1.11,9.6,M,-25.6,M,0000,0000*67
$GPGGA,172146.400,3732.5914,N,12216.0002,W,2,7,1.11,9.6,M,-25.6,M,0000,0000*63
$GPGGA,172146.600,3732.5911,N,12215.9992,W,2,8,1.07,9.6,M,-25.6,M,0000,0000*66
$GPGGA,172146.800,3732.5908,N,12215.9982,W,2,8,1.07,9.5,M,-25.6,M,0000,0000*62
$GPGGA,172147.000,3732.5905,N,12215.9972,W,2,8,1.07,9.5,M,-25.6,M,0000,0000*69
$GPGGA,172147.200,3732.5903,N,12215.9963,W,2,8,1.07,9.5,M,-25.6,M,0000,0000*6D
$GPGGA,172147.400,3732.5900,N,12215.9954,W,2,8,1.07,9.4,M,-25.6,M,0000,0000*6D
$GPGGA,172147.600,3732.5898,N,12215.9945,W,2,8,1.07,9.4,M,-25.6,M,0000,0000*6F
$GPGGA,172147.800,3732.5897,N,12215.9937,W,2,8,1.07,9.3,M,-25.6,M,0000,0000*6C
$GPGGA,172148.000,3732.5895,N,12215.9928,W,2,8,1.07,9.3,M,-25.6,M,0000,0000*67
$GPGGA,172148.200,3732.5894,N,12215.9921,W,2,8,1.07,9.3,M,-25.6,M,0000,0000*6D
$GPGGA,172148.400,3732.5892,N,12215.9913,W,2,8,1.07,9.2,M,-25.6,M,0000,0000*6D
$GPGGA,172148.600,3732.5891,N,12215.9908,W,2,8,1.07,9.2,M,-25.6,M,0000,0000*66
$GPGGA,172148.800,3732.5890,N,12215.9903,W,2,8,1.07,9.1,M,-25.6,M,0000,0000*61
$GPGGA,172149.000,3732.5889,N,12215.9898,W,2,8,1.07,9.1,M,-25.6,M,0000,0000*63
$GPGGA,172149.200,3732.5888,N,12215.9894,W,2,8,1.07,9.1,M,-25.6,M,0000,0000*6C
$GPGGA,172149.400,3732.5887,N,12215.9890,W,2,8,1.07,9.0,M,-25.6,M,0000,0000*60
$GPGGA,172149.600,3732.5885,N,12215.9886,W,2,8,1.07,9.0,M,-25.6,M,0000,0000*67
$GPGGA,172149.800,3732.5884,N,12215.9883,W,2,8,1.07,8.9,M,-25.6,M,0000,0000*65
$GPGGA,172150.000,3732.5884,N,12215.9879,W,2,8,1.07,8.9,M,-25.6,M,0000,0000*60
$GPGGA,172150.200,3732.5883,N,12215.9876,W,2,9,0.95,8.9,M,-25.6,M,0000,0000*61
$GPGGA,172150.400,3732.5882,N,12215.9872,W,2,9,0.95,8.7,M,-25.6,M,0000,0000*6C
$GPGGA,172150.600,3732.5881,N,12215.9868,W,2,9,0.95,8.6,M,-25.6,M,0000,0000*67
$GPGGA,172150.800,3732.5880,N,12215.9865,W,2,9,0.95,8.3,M,-25.6,M,0000,0000*60
$GPGGA,172151.000,3732.5879,N,12215.9862,W,2,9,0.95,8.2,M,-25.6,M,0000,0000*69
$GPGGA,172151.200,3732.5878,N,12215.9858,W,2,9,0.95,8.2,M,-25.6,M,0000,0000*63
$GPGGA,172151.400,3732.5876,N,12215.9854,W,2,9,0.95,8.1,M,-25.6,M,0000,0000*64
$GPGGA,172151.600,3732.5876,N,12215.9849,W,2,9,0.95,8.0,M,-25.6,M,0000,0000*6B
$GPGGA,172151.800,3732.5874,N,12215.9844,W,2,9,0.95,8.0,M,-25.6,M,0000,0000*6A
$GPGGA,172152.000,3732.5873,N,12215.9839,W,2,9,0.95,7.8,M,-25.6,M,0000,0000*6B
$GPGGA,172152.200,3732.5872,N,12215.9834,W,2,9,0.95,7.8,M,-25.6,M,0000,0000*65
$GPGGA,172152.400,3732.5872,N,12215.9829,W,2,9,0.95,7.8,M,-25.6,M,0000,0000*6F
$GPGGA,172152.600,3732.5871,N,12215.9823,W,2,9,0.95,7.7,M,-25.6,M,0000,0000*6B
$GPGGA,172152.800,3732.5871,N,12215.9818,W,2,9,0.95,7.7,M,-25.6,M,0000,0000*6D
$GPGGA,172153.000,3732.5870,N,12215.9813,W,2,9,0.95,7.7,M,-25.6,M,0000,0000*6E
$GPGGA,172153.200,3732.5870,N,12215.9808,W,2,8,1.07,7.6,M,-25.6,M,0000,0000*6C
$GPGGA,172153.400,3732.5870,N,12215.9802,W,2,8,1.07,7.6,M,-25.6,M,0000,0000*60
$GPGGA,172153.600,3732.5869,N,12215.9796,W,2,8,1.07,7.5,M,-25.6,M,0000,0000*6B
$GPGGA,172153.800,3732.5869,N,12215.9790,W,2,9,0.95,7.5,M,-25.6,M,0000,0000*68
$GPGGA,172154.000,3732.5869,N,12215.9784,W,2,9,0.95,7.5,M,-25.6,M,0000,0000*62
$GPGGA,172154.200,3732.5869,N,12215.9778,W,2,9,0.95,7.4,M,-25.6,M,0000,0000*62
$GPGGA,172154.400,3732.5869,N,12215.9771,W,2,9,0.95,7.3,M,-25.6,M,0000,0000*6A
$GPGGA,172154.600,3732.5870,N,12215.9764,W,2,9,0.95,7.3,M,-25.6,M,0000,0000*64
$GPGGA,172154.800,3732.5870,N,12215.9757,W,2,9,0.95,7.2,M,-25.6,M,0000,0000*6B
$GPGGA,172155.000,3732.5870,N,12215.9749,W,2,9,0.95,7.2,M,-25.6,M,0000,0000*6D
$GPGGA,172155.200,3732.5870,N,12215.9741,W,2,8,1.07,7.1,M,-25.6,M,0000,0000*6F
$GPGGA,172155.400,3732.5870,N,12215.9732,W,2,8,1.07,7.0,M,-25.6,M,0000,0000*6C
$GPGGA,172155.600,3732.5870,N,12215.9724,W,2,8,1.07,6.9,M,-25.6,M,0000,0000*61
$GPGGA,172155.800,3732.5870,N,12215.9715,W,2,8,1.07,6.8,M,-25.6,M,0000,0000*6C
$GPGGA,172156.000,3732.5870,N,12215.9706,W,2,8,1.07,6.7,M,-25.6,M,0000,0000*6A
$GPGGA,172156.200,3732.5871,N,12215.9696,W,2,8,1.07,6.6,M,-25.6,M,0000,0000*60
$GPGGA,172156.400,3732.5871,N,12215.9687,W,2,8,1.07,6.5,M,-25.6,M,0000,0000*65
$GPGGA,172156.600,3732.5871,N,12215.9677,W,2,8,1.07,6.4,M,-25.6,M,0000,0000*69
$GPGGA,172156.800,3732.5871,N,12215.9667,W,2,8,1.07,6.3,M,-25.6,M,0000,0000*61
$GPGGA,172157.000,3732.5871,N,12215.9657,W,2,8,1.07,6.2,M,-25.6,M,0000,0000*6A
$GPGGA,172157.200,3732.5871,N,12215.9647,W,2,8,1.07,6.1,M,-25.6,M,0000,0000*6A
$GPGGA,172157.400,3732.5871,N,12215.9637,W,2,8,1.07,6.1,M,-25.6,M,0000,0000*6B
$GPGGA,172157.600,3732.5871,N,12215.9627,W,2,8,1.07,6.0,M,-25.6,M,0000,0000*69
$GPGGA,172157.800,3732.5871,N,12215.9617,W,2,9,0.95,5.9,M,-25.6,M,0000,0000*65
$GPGGA,172158.000,3732.5871,N,12215.9607,W,2,9,0.95,5.8,M,-25.6,M,0000,0000*62
$GPGGA,172158.200,3732.5871,N,12215.9596,W,2,9,0.95,5.8,M,-25.6,M,0000,0000*6B
$GPGGA,172158.400,3732.5871,N,12215.9585,W,2,9,0.95,5.7,M,-25.6,M,0000,0000*60
$GPGGA,172158.600,3732.5871,N,12215.9574,W,2,9,0.95,5.6,M,-25.6,M,0000,0000*6D
$GPGGA,172158.800,3732.5871,N,12215.9563,W,2,9,0.95,5.6,M,-25.6,M,0000,0000*65
$GPGGA,172159.000,3732.5872,N,12215.9552,W,2,9,0.95,5.5,M,-25.6,M,0000,0000*6E
$GPGGA,172159.200,3732.5872,N,12215.9540,W,2,9,0.95,5.5,M,-25.6,M,0000,0000*6F
$GPGGA,172159.400,3732.5873,N,12215.9529,W,2,9,0.95,5.4,M,-25.6,M,0000,0000*66
$GPGGA,172159.600,3732.5874,N,12215.9517,W,2,9,0.95,5.4,M,-25.6,M,0000,0000*6E
$GPGGA,172159.800,3732.5875,N,12215.9506,W,2,9,0.95,5.4,M,-25.6,M,0000,0000*61
$GPGGA,172200.000,3732.5876,N,12215.9494,W,2,8,0.98,5.3,M,-25.6,M,0000,0000*64
$GPGGA,172200.200,3732.5877,N,12215.9482,W,2,9,0.95,5.3,M,-25.6,M,0000,0000*6C
$GPGGA,172200.400,3732.5878,N,12215.9471,W,2,9,0.95,5.3,M,-25.6,M,0000,0000*69
$GPGGA,172200.600,3732.5879,N,12215.9460,W,2,9,0.95,5.3,M,-25.6,M,0000,0000*6A
$GPGGA,172200.800,3732.5880,N,12215.9448,W,2,8,0.98,5.3,M,-25.6,M,0000,0000*64
$GPGGA,172201.000,3732.5881,N,12215.9437,W,2,9,0.95,5.2,M,-25.6,M,0000,0000*69
$GPGGA,172201.200,3732.5882,N,12215.9424,W,2,9,0.95,5.2,M,-25.6,M,0000,0000*6A
$GPGGA,172201.400,3732.5882,N,12215.9413,W,2,9,0.95,5.2,M,-25.6,M,0000,0000*68
$GPGGA,172201.600,3732.5883,N,12215.9401,W,2,9,0.95,5.2,M,-25.6,M,0000,0000*68
$GPGGA,172201.800,3732.5884,N,12215.9389,W,2,9,0.95,5.2,M,-25.6,M,0000,0000*66
$GPGGA,172202.000,3732.5885,N,12215.9378,W,2,9,0.95,5.1,M,-25.6,M,0000,0000*61
$GPGGA,172202.200,3732.5886,N,12215.9367,W,2,9,0.95,5.1,M,-25.6,M,0000,0000*6E
$GPGGA,172202.400,3732.5887,N,12215.9356,W,2,9,0.95,5.1,M,-25.6,M,0000,0000*6B
$GPGGA,172202.600,3732.5888,N,12215.9345,W,2,9,0.95,5.0,M,-25.6,M,0000,0000*65
$GPGGA,172202.800,3732.5889,N,12215.9335,W,2,9,0.95,5.0,M,-25.6,M,0000,0000*6D
$GPGGA,172203.000,3732.5890,N,12215.9324,W,2,9,0.95,4.9,M,-25.6,M,0000,0000*64
$GPGGA,172203.200,3732.5892,N,12215.9314,W,2,9,0.95,4.9,M,-25.6,M,0000,0000*67
$GPGGA,172203.400,3732.5893,N,12215.9304,W,2,8,1.07,4.8,M,-25.6,M,0000,0000*6B
$GPGGA,172203.600,3732.5893,N,12215.9294,W,2,8,1.07,4.8,M,-25.6,M,0000,0000*61
$GPGGA,172203.800,3732.5894,N,12215.9285,W,2,8,1.07,4.7,M,-25.6,M,0000,0000*67
$GPGGA,172204.000,3732.5895,N,12215.9275,W,2,8,1.07,4.7,M,-25.6,M,0000,0000*66
$GPGGA,172204.200,3732.5896,N,12215.9266,W,2,8,1.07,4.6,M,-25.6,M,0000,0000*64
$GPGGA,172204.400,3732.5896,N,12215.9258,W,2,8,1.07,4.6,M,-25.6,M,0000,0000*6F
$GPGGA,172204.600,3732.5897,N,12215.9250,W,2,8,1.07,4.5,M,-25.6,M,0000,0000*67
$GPGGA,172204.800,3732.5897,N,12215.9242,W,2,7,1.11,4.5,M,-25.6,M,0000,0000*62
$GPGGA,172205.000,3732.5897,N,12215.9235,W,2,7,1.11,4.5,M,-25.6,M,0000,0000*6B
$GPGGA,172205.200,3732.5897,N,12215.9227,W,2,7,1.11,4.4,M,-25.6,M,0000,0000*6B
$GPGGA,172205.400,3732.5898,N,12215.9220,W,2,7,1.11,4.4,M,-25.6,M,0000,0000*65
$GPGGA,172205.600,3732.5898,N,12215.9213,W,2,7,1.11,4.4,M,-25.6,M,0000,0000*67
$GPGGA,172205.800,3732.5899,N,12215.9207,W,2,8,1.07,4.3,M,-25.6,M,0000,0000*62
$GPGGA,172206.000,3732.5899,N,12215.9201,W,2,8,1.07,4.3,M,-25.6,M,0000,0000*6F
$GPGGA,172206.200,3732.5900,N,12215.9194,W,2,8,1.07,4.3,M,-25.6,M,0000,0000*63
$GPGGA,172206.400,3732.5900,N,12215.9189,W,2,8,1.07,4.3,M,-25.6,M,0000,0000*69
$GPGGA,172206.600,3732.5901,N,12215.9183,W,2,8,1.07,4.2,M,-25.6,M,0000,0000*61
$GPGGA,172206.800,3732.5902,N,12215.9177,W,2,8,1.07,4.2,M,-25.6,M,0000,0000*67
$GPGGA,172207.000,3732.5903,N,12215.9172,W,2,8,1.07,4.2,M,-25.6,M,0000,0000*6A
$GPGGA,172207.200,3732.5904,N,12215.9166,W,2,8,1.07,4.2,M,-25.6,M,0000,0000*6A
$GPGGA,172207.400,3732.5905,N,12215.9161,W,2,8,1.07,4.2,M,-25.6,M,0000,0000*6A
$GPGGA,172207.600,3732.5906,N,12215.9156,W,2,9,0.95,4.2,M,-25.6,M,0000,0000*64
$GPGGA,172207.800,3732.5907,N,12215.9151,W,2,9,0.95,4.2,M,-25.6,M,0000,0000*6C
$GPGGA,172208.000,3732.5909,N,12215.9147,W,2,9,0.95,4.1,M,-25.6,M,0000,0000*61
$GPGGA,172208.200,3732.5911,N,12215.9143,W,2,9,0.95,4.1,M,-25.6,M,0000,0000*6E
$GPGGA,172208.400,3732.5914,N,12215.9140,W,2,9,0.95,4.1,M,-25.6,M,0000,0000*6E
$GPGGA,172208.600,3732.5917,N,12215.9137,W,2,9,0.95,4.1,M,-25.6,M,0000,0000*6F
$GPGGA,172208.800,3732.5920,N,12215.9134,W,2,8,1.07,4.1,M,-25.6,M,0000,0000*6D
$GPGGA,172209.000,3732.5923,N,12215.9132,W,2,8,1.07,4.1,M,-25.6,M,0000,0000*61
$GPGGA,172209.200,3732.5924,N,12215.9127,W,2,9,0.95,4.4,M,-25.6,M,0000,0000*6E
$GPGGA,172209.400,3732.5926,N,12215.9123,W,2,9,0.95,4.5,M,-25.6,M,0000,0000*6F
$GPGGA,172209.600,3732.5930,N,12215.9121,W,2,9,0.95,4.5,M,-25.6,M,0000,0000*68
$GPGGA,172209.800,3732.5935,N,12215.9117,W,2,9,0.95,4.6,M,-25.6,M,0000,0000*65
$GPGGA,172210.000,3732.5940,N,12215.9113,W,2,9,0.95,4.6,M,-25.6,M,0000,0000*63
$GPGGA,172210.200,3732.5944,N,12215.9109,W,2,9,0.95,4.6,M,-25.6,M,0000,0000*6E
$GPGGA,172210.400,3732.5948,N,12215.9105,W,2,9,0.95,4.4,M,-25.6,M,0000,0000*6A
$GPGGA,172210.600,3732.5950,N,12215.9103,W,2,9,0.95,4.3,M,-25.6,M,0000,0000*60
$GPGGA,172210.800,3732.5953,N,12215.9101,W,2,9,0.95,4.3,M,-25.6,M,0000,0000*6F
$GPGGA,172211.000,3732.5954,N,12215.9099,W,2,9,0.95,4.3,M,-25.6,M,0000,0000*61
$GPGGA,172211.200,3732.5956,N,12215.9098,W,2,9,0.95,4.3,M,-25.6,M,0000,0000*60
$GPGGA,172211.400,3732.5958,N,12215.9096,W,2,9,0.95,4.2,M,-25.6,M,0000,0000*67
$GPGGA,172211.600,3732.5960,N,12215.9094,W,2,9,0.95,4.1,M,-25.6,M,0000,0000*6F
$GPGGA,172211.800,3732.5962,N,12215.9092,W,2,9,0.95,3.9,M,-25.6,M,0000,0000*6A
$GPGGA,172212.000,3732.5963,N,12215.9089,W,2,8,1.07,3.8,M,-25.6,M,0000,0000*60
$GPGGA,172212.200,3732.5965,N,12215.9087,W,2,8,1.07,3.8,M,-25.6,M,0000,0000*6A
$GPGGA,172212.400,3732.5967,N,12215.9085,W,2,8,1.07,3.7,M,-25.6,M,0000,0000*63
$GPGGA,172212.600,3732.5970,N,12215.9083,W,2,8,1.07,3.5,M,-25.6,M,0000,0000*63
$GPGGA,172212.800,3732.5974,N,12215.9082,W,2,8,1.07,3.5,M,-25.6,M,0000,0000*68
$GPGGA,172213.000,3732.5978,N,12215.9081,W,2,8,1.07,3.5,M,-25.6,M,0000,0000*6E
$GPGGA,172213.200,3732.5981,N,12215.9079,W,2,8,1.07,3.5,M,-25.6,M,0000,0000*6D
$GPGGA,172213.400,3732.5985,N,12215.9078,W,2,9,0.93,3.5,M,-25.6,M,0000,0000*63
$GPGGA,172213.600,3732.5989,N,12215.9076,W,2,9,0.95,3.5,M,-25.6,M,0000,0000*65
$GPGGA,172213.800,3732.5993,N,12215.9074,W,2,9,0.95,3.5,M,-25.6,M,0000,0000*62
$GPGGA,172214.000,3732.5998,N,12215.9072,W,2,9,0.95,3.6,M,-25.6,M,0000,0000*63
$GPGGA,172214.200,3732.6002,N,12215.9070,W,2,9,0.95,3.6,M,-25.6,M,0000,0000*6A
$GPGGA,172214.400,3732.6007,N,12215.9067,W,2,9,0.95,3.6,M,-25.6,M,0000,0000*6F
$GPGGA,172214.600,3732.6012,N,12215.9065,W,2,9,0.95,3.6,M,-25.6,M,0000,0000*6B
$GPGGA,172214.800,3732.6017,N,12215.9062,W,2,9,0.95,3.6,M,-25.6,M,0000,0000*67
$GPGGA,172215.000,3732.6022,N,12215.9059,W,2,9,0.95,3.6,M,-25.6,M,0000,0000*60
$GPGGA,172215.200,3732.6027,N,12215.9056,W,2,9,0.95,3.6,M,-25.6,M,0000,0000*68
$GPGGA,172215.400,3732.6032,N,12215.9052,W,2,9,0.95,3.6,M,-25.6,M,0000,0000*6E
$GPGGA,172215.600,3732.6037,N,12215.9050,W,2,9,0.95,3.6,M,-25.6,M,0000,0000*6B
$GPGGA,172215.800,3732.6042,N,12215.9047,W,2,9,0.95,3.6,M,-25.6,M,0000,0000*61
$GPGGA,172216.000,3732.6047,N,12215.9043,W,2,9,0.95,3.6,M,-25.6,M,0000,0000*6B
$GPGGA,172216.200,3732.6052,N,12215.9039,W,2,9,0.95,3.6,M,-25.6,M,0000,0000*60
$GPGGA,172216.400,3732.6058,N,12215.9036,W,2,9,0.95,3.6,M,-25.6,M,0000,0000*63
$GPGGA,172216.600,3732.6063,N,12215.9032,W,2,9,0.95,3.6,M,-25.6,M,0000,0000*6D
$GPGGA,172216.800,3732.6069,N,12215.9028,W,2,9,0.95,3.6,M,-25.6,M,0000,0000*62
$GPGGA,172217.000,3732.6075,N,12215.9024,W,2,9,0.95,3.6,M,-25.6,M,0000,0000*6A
$GPGGA,172217.200,3732.6081,N,12215.9020,W,2,9,0.95,3.6,M,-25.6,M,0000,0000*67
$GPGGA,172217.400,3732.6087,N,12215.9017,W,2,9,0.95,3.6,M,-25.6,M,0000,0000*63
$GPGGA,172217.600,3732.6094,N,12215.9013,W,2,9,0.95,3.6,M,-25.6,M,0000,0000*67
$GPGGA,172217.800,3732.6100,N,12215.9010,W,2,9,0.95,3.6,M,-25.6,M,0000,0000*66
$GPGGA,172218.000,3732.6107,N,12215.9007,W,2,9,0.95,3.6,M,-25.6,M,0000,0000*60
$GPGGA,172218.200,3732.6114,N,12215.9003,W,2,9,0.95,3.6,M,-25.6,M,0000,0000*64
$GPGGA,172218.400,3732.6122,N,12215.8999,W,2,9,0.95,3.6,M,-25.6,M,0000,0000*6C
$GPGGA,172218.600,3732.6131,N,12215.8995,W,2,9,0.95,3.7,M,-25.6,M,0000,0000*61
$GPGGA,172218.800,3732.6139,N,12215.8991,W,2,9,0.95,3.7,M,-25.6,M,0000,0000*63
$GPGGA,172219.000,3732.6148,N,12215.8987,W,2,9,0.95,3.7,M,-25.6,M,0000,0000*6B
$GPGGA,172219.200,3732.6157,N,12215.8983,W,2,9,0.95,3.7,M,-25.6,M,0000,0000*63
$GPGGA,172219.400,3732.6166,N,12215.8978,W,2,9,0.95,3.7,M,-25.6,M,0000,0000*63
$GPGGA,172219.600,3732.6175,N,12215.8974,W,2,9,0.95,3.7,M,-25.6,M,0000,0000*6F
$GPGGA,172219.800,3732.6184,N,12215.8969,W,2,8,1.07,3.7,M,-25.6,M,0000,0000*68
$GPGGA,172220.000,3732.6193,N,12215.8964,W,2,8,1.07,3.7,M,-25.6,M,0000,0000*61
$GPGGA,172220.200,3732.6202,N,12215.8960,W,2,8,1.07,3.7,M,-25.6,M,0000,0000*6C
$GPGGA,172220.400,3732.6211,N,12215.8955,W,2,8,1.07,3.7,M,-25.6,M,0000,0000*6E
$GPGGA,172220.600,3732.6221,N,12215.8950,W,2,8,1.07,3.7,M,-25.6,M,0000,0000*6A
$GPGGA,172220.800,3732.6231,N,12215.8945,W,2,8,1.07,3.7,M,-25.6,M,0000,0000*61
$GPGGA,172221.000,3732.6240,N,12215.8941,W,2,9,0.95,3.7,M,-25.6,M,0000,0000*61
$GPGGA,172221.200,3732.6250,N,12215.8936,W,2,9,0.95,3.7,M,-25.6,M,0000,0000*62
$GPGGA,172221.400,3732.6261,N,12215.8932,W,2,9,0.95,3.7,M,-25.6,M,0000,0000*62
$GPGGA,172221.600,3732.6271,N,12215.8928,W,2,9,0.95,3.7,M,-25.6,M,0000,0000*6A
$GPGGA,172221.800,3732.6281,N,12215.8924,W,2,9,0.95,3.7,M,-25.6,M,0000,0000*67
$GPGGA,172222.000,3732.6292,N,12215.8921,W,2,9,0.95,3.8,M,-25.6,M,0000,0000*64
$GPGGA,172222.200,3732.6302,N,12215.8917,W,2,9,0.95,3.8,M,-25.6,M,0000,0000*6B
$GPGGA,172222.400,3732.6312,N,12215.8914,W,2,9,0.95,3.8,M,-25.6,M,0000,0000*6F
$GPGGA,172222.600,3732.6322,N,12215.8911,W,2,9,0.95,3.8,M,-25.6,M,0000,0000*6B
$GPGGA,172222.800,3732.6333,N,12215.8908,W,2,9,0.95,3.8,M,-25.6,M,0000,0000*6D
$GPGGA,172223.000,3732.6344,N,12215.8906,W,2,9,0.95,3.9,M,-25.6,M,0000,0000*6B
$GPGGA,172223.200,3732.6354,N,12215.8905,W,2,9,0.95,3.9,M,-25.6,M,0000,0000*6B
$GPGGA,172223.400,3732.6365,N,12215.8903,W,2,9,0.95,3.9,M,-25.6,M,0000,0000*69
$GPGGA,172223.600,3732.6375,N,12215.8902,W,2,9,0.95,3.9,M,-25.6,M,0000,0000*6B
$GPGGA,172223.800,3732.6386,N,12215.8901,W,2,9,0.95,3.9,M,-25.6,M,0000,0000*6A
$GPGGA,172224.000,3732.6396,N,12215.8900,W,2,9,0.95,3.9,M,-25.6,M,0000,0000*65
$GPGGA,172224.200,3732.6406,N,12215.8899,W,2,9,0.95,4.0,M,-25.6,M,0000,0000*66
$GPGGA,172224.400,3732.6416,N,12215.8898,W,2,9,0.95,4.0,M,-25.6,M,0000,0000*60
$GPGGA,172224.600,3732.6426,N,12215.8899,W,2,8,1.07,4.0,M,-25.6,M,0000,0000*6B
$GPGGA,172224.800,3732.6435,N,12215.8899,W,2,8,1.07,4.0,M,-25.6,M,0000,0000*67
$GPGGA,172225.000,3732.6445,N,12215.8899,W,2,8,1.07,3.9,M,-25.6,M,0000,0000*67
$GPGGA,172225.200,3732.6454,N,12215.8900,W,2,8,1.07,3.9,M,-25.6,M,0000,0000*64
$GPGGA,172225.400,3732.6464,N,12215.8902,W,2,8,1.07,3.9,M,-25.6,M,0000,0000*63
$GPGGA,172225.600,3732.6474,N,12215.8904,W,2,8,1.07,3.9,M,-25.6,M,0000,0000*66
$GPGGA,172225.800,3732.6483,N,12215.8905,W,2,8,1.07,3.9,M,-25.6,M,0000,0000*61
$GPGGA,172226.000,3732.6492,N,12215.8906,W,2,8,1.07,3.9,M,-25.6,M,0000,0000*69
$GPGGA,172226.200,3732.6499,N,12215.8907,W,2,8,1.07,3.8,M,-25.6,M,0000,0000*60
$GPGGA,172226.400,3732.6506,N,12215.8907,W,2,8,1.07,3.8,M,-25.6,M,0000,0000*61
$GPGGA,172226.600,3732.6512,N,12215.8908,W,2,8,1.07,3.8,M,-25.6,M,0000,0000*69
$GPGGA,172226.800,3732.6517,N,12215.8908,W,2,8,1.07,3.8,M,-25.6,M,0000,0000*62
$GPGGA,172227.000,3732.6522,N,12215.8909,W,2,8,1.07,3.8,M,-25.6,M,0000,0000*6C
$GPGGA,172227.200,3732.6527,N,12215.8909,W,2,8,1.07,3.8,M,-25.6,M,0000,0000*6B
$GPGGA,172227.400,3732.6530,N,12215.8909,W,2,8,1.07,3.8,M,-25.6,M,0000,0000*6B
$GPGGA,172227.600,3732.6533,N,12215.8910,W,2,8,1.07,3.8,M,-25.6,M,0000,0000*62
$GPGGA,172227.800,3732.6536,N,12215.8910,W,2,8,1.07,3.8,M,-25.6,M,0000,0000*69
$GPGGA,172228.000,3732.6539,N,12215.8910,W,2,8,1.07,3.8,M,-25.6,M,0000,0000*61
$GPGGA,172228.200,3732.6541,N,12215.8910,W,2,8,1.07,3.8,M,-25.6,M,0000,0000*6C
$GPGGA,172228.400,3732.6542,N,12215.8910,W,2,8,1.07,3.8,M,-25.6,M,0000,0000*69
$GPGGA,172228.600,3732.6544,N,12215.8911,W,2,9,0.95,3.7,M,-25.6,M,0000,0000*68
$GPGGA,172228.800,3732.6544,N,12215.8911,W,2,9,0.95,3.8,M,-25.6,M,0000,0000*69
$GPGGA,172229.000,3732.6545,N,12215.8911,W,2,8,1.07,3.9,M,-25.6,M,0000,0000*6B
$GPGGA,172229.200,3732.6546,N,12215.8911,W,2,8,1.07,4.0,M,-25.6,M,0000,0000*64
$GPGGA,172229.400,3732.6547,N,12215.8911,W,2,8,1.07,4.0,M,-25.6,M,0000,0000*63
$GPGGA,172229.600,3732.6548,N,12215.8912,W,2,8,1.07,4.2,M,-25.6,M,0000,0000*6F
$GPGGA,172229.800,3732.6550,N,12215.8912,W,2,8,1.07,4.4,M,-25.6,M,0000,0000*6E
$GPGGA,172230.000,3732.6551,N,12215.8912,W,2,8,1.07,4.4,M,-25.6,M,0000,0000*6F
$GPGGA,172230.200,3732.6553,N,12215.8912,W,2,8,1.07,4.3,M,-25.6,M,0000,0000*68
$GPGGA,172230.400,3732.6555,N,12215.8913,W,2,8,1.07,4.2,M,-25.6,M,0000,0000*68
$GPGGA,172230.600,3732.6557,N,12215.8914,W,2,9,0.95,4.0,M,-25.6,M,0000,0000*66
$GPGGA,172230.800,3732.6559,N,12215.8915,W,2,9,0.95,3.7,M,-25.6,M,0000,0000*67
$GPGGA,172231.000,3732.6562,N,12215.8918,W,2,9,0.95,3.5,M,-25.6,M,0000,0000*69
$GPGGA,172231.200,3732.6565,N,12215.8920,W,2,9,0.95,3.3,M,-25.6,M,0000,0000*61
$GPGGA,172231.400,3732.6569,N,12215.8922,W,2,9,0.95,3.0,M,-25.6,M,0000,0000*6A
$GPGGA,172231.600,3732.6571,N,12215.8926,W,2,9,0.95,3.0,M,-25.6,M,0000,0000*65
$GPGGA,172231.800,3732.6574,N,12215.8930,W,2,9,0.95,3.0,M,-25.6,M,0000,0000*69
$GPGGA,172232.000,3732.6577,N,12215.8934,W,2,9,0.95,3.0,M,-25.6,M,0000,0000*65
$GPGGA,172232.200,3732.6580,N,12215.8939,W,2,9,0.95,2.9,M,-25.6,M,0000,0000*6A
$GPGGA,172232.400,3732.6584,N,12215.8944,W,2,9,0.95,2.9,M,-25.6,M,0000,0000*62
$GPGGA,172232.600,3732.6587,N,12215.8950,W,2,9,0.95,2.8,M,-25.6,M,0000,0000*67
$GPGGA,172232.800,3732.6590,N,12215.8956,W,2,8,1.07,2.8,M,-25.6,M,0000,0000*62
$GPGGA,172233.000,3732.6593,N,12215.8962,W,2,8,1.07,2.8,M,-25.6,M,0000,0000*6F
$GPGGA,172233.200,3732.6596,N,12215.8969,W,2,8,1.07,2.7,M,-25.6,M,0000,0000*6C
$GPGGA,172233.400,3732.6599,N,12215.8976,W,2,8,1.07,2.7,M,-25.6,M,0000,0000*6B
$GPGGA,172233.600,3732.6602,N,12215.8984,W,2,8,1.07,2.6,M,-25.6,M,0000,0000*64
$GPGGA,172233.800,3732.6603,N,12215.8991,W,2,8,1.07,2.5,M,-25.6,M,0000,0000*6C
$GPGGA,172234.000,3732.6605,N,12215.8999,W,2,8,1.07,2.5,M,-25.6,M,0000,0000*6D
$GPGGA,172234.200,3732.6607,N,12215.9008,W,2,8,1.07,2.4,M,-25.6,M,0000,0000*6C
$GPGGA,172234.400,3732.6608,N,12215.9017,W,2,8,1.07,2.3,M,-25.6,M,0000,0000*6C
$GPGGA,172234.600,3732.6609,N,12215.9025,W,2,8,1.07,2.3,M,-25.6,M,0000,0000*6E
$GPGGA,172234.800,3732.6610,N,12215.9035,W,2,8,1.07,2.2,M,-25.6,M,0000,0000*68
$GPGGA,172235.000,3732.6610,N,12215.9045,W,2,8,1.07,2.2,M,-25.6,M,0000,0000*66
$GPGGA,172235.200,3732.6610,N,12215.9055,W,2,8,1.07,2.1,M,-25.6,M,0000,0000*66
$GPGGA,172235.400,3732.6610,N,12215.9066,W,2,8,1.07,2.0,M,-25.6,M,0000,0000*61
$GPGGA,172235.600,3732.6610,N,12215.9076,W,2,8,1.07,2.0,M,-25.6,M,0000,0000*62
$GPGGA,172235.800,3732.6610,N,12215.9087,W,2,8,1.07,1.9,M,-25.6,M,0000,0000*68
$GPGGA,172236.000,3732.6610,N,12215.9098,W,2,9,0.95,1.9,M,-25.6,M,0000,0000*66
$GPGGA,172236.200,3732.6610,N,12215.9109,W,2,9,0.95,1.8,M,-25.6,M,0000,0000*6C
$GPGGA,172236.400,3732.6610,N,12215.9120,W,2,9,0.95,1.8,M,-25.6,M,0000,0000*61
$GPGGA,172236.600,3732.6611,N,12215.9132,W,2,9,0.95,1.8,M,-25.6,M,0000,0000*61
$GPGGA,172236.800,3732.6612,N,12215.9144,W,2,9,0.95,1.7,M,-25.6,M,0000,0000*62
$GPGGA,172237.000,3732.6614,N,12215.9155,W,2,9,0.95,1.7,M,-25.6,M,0000,0000*6D
$GPGGA,172237.200,3732.6615,N,12215.9168,W,2,9,0.95,1.7,M,-25.6,M,0000,0000*60
$GPGGA,172237.400,3732.6617,N,12215.9180,W,2,9,0.95,1.6,M,-25.6,M,0000,0000*63
$GPGGA,172237.600,3732.6619,N,12215.9193,W,2,8,1.07,1.6,M,-25.6,M,0000,0000*66
$GPGGA,172237.800,3732.6621,N,12215.9206,W,2,8,1.07,1.6,M,-25.6,M,0000,0000*6C
$GPGGA,172238.000,3732.6624,N,12215.9220,W,2,8,1.07,1.6,M,-25.6,M,0000,0000*6A
$GPGGA,172238.200,3732.6627,N,12215.9233,W,2,8,1.07,1.6,M,-25.6,M,0000,0000*69
$GPGGA,172238.400,3732.6630,N,12215.9247,W,2,8,1.07,1.5,M,-25.6,M,0000,0000*69
$GPGGA,172238.600,3732.6634,N,12215.9261,W,2,8,1.07,1.5,M,-25.6,M,0000,0000*6B
$GPGGA,172238.800,3732.6637,N,12215.9275,W,2,8,1.07,1.5,M,-25.6,M,0000,0000*63
$GPGGA,172239.000,3732.6641,N,12215.9289,W,2,8,1.07,1.5,M,-25.6,M,0000,0000*68
$GPGGA,172239.200,3732.6645,N,12215.9303,W,2,8,1.07,1.5,M,-25.6,M,0000,0000*6D
$GPGGA,172239.400,3732.6649,N,12215.9319,W,2,8,1.07,1.5,M,-25.6,M,0000,0000*6C
$GPGGA,172239.600,3732.6653,N,12215.9334,W,2,8,1.07,1.5,M,-25.6,M,0000,0000*6A
$GPGGA,172239.800,3732.6657,N,12215.9350,W,2,8,1.07,1.5,M,-25.6,M,0000,0000*62
$GPGGA,172240.000,3732.6661,N,12215.9366,W,2,8,1.07,1.4,M,-25.6,M,0000,0000*65
$GPGGA,172240.200,3732.6665,N,12215.9382,W,2,8,1.07,1.3,M,-25.6,M,0000,0000*6E
$GPGGA,172240.400,3732.6670,N,12215.9398,W,2,8,1.07,1.2,M,-25.6,M,0000,0000*66
$GPGGA,172240.600,3732.6673,N,12215.9414,W,2,8,1.07,1.1,M,-25.6,M,0000,0000*67
$GPGGA,172240.800,3732.6677,N,12215.9430,W,2,8,1.07,1.0,M,-25.6,M,0000,0000*6A
$GPGGA,172241.000,3732.6681,N,12215.9447,W,2,8,1.07,1.0,M,-25.6,M,0000,0000*6A
$GPGGA,172241.200,3732.6685,N,12215.9464,W,2,8,1.07,0.9,M,-25.6,M,0000,0000*65
$GPGGA,172241.400,3732.6688,N,12215.9480,W,2,8,1.07,0.8,M,-25.6,M,0000,0000*65
$GPGGA,172241.600,3732.6692,N,12215.9497,W,2,8,1.07,0.8,M,-25.6,M,0000,0000*6A
$GPGGA,172241.800,3732.6696,N,12215.9514,W,2,8,1.07,0.7,M,-25.6,M,0000,0000*65
$GPGGA,172242.000,3732.6701,N,12215.9531,W,2,8,1.07,0.7,M,-25.6,M,0000,0000*66
$GPGGA,172242.200,3732.6707,N,12215.9549,W,2,8,1.07,0.7,M,-25.6,M,0000,0000*6D
$GPGGA,172242.400,3732.6713,N,12215.9566,W,2,8,1.07,0.8,M,-25.6,M,0000,0000*6C
$GPGGA,172242.600,3732.6717,N,12215.9584,W,2,8,1.07,0.8,M,-25.6,M,0000,0000*66
$GPGGA,172242.800,3732.6721,N,12215.9601,W,2,8,1.07,0.7,M,-25.6,M,0000,0000*6C
$GPGGA,172243.000,3732.6725,N,12215.9619,W,2,8,1.07,0.6,M,-25.6,M,0000,0000*69
$GPGGA,172243.200,3732.6730,N,12215.9636,W,2,8,1.07,0.3,M,-25.6,M,0000,0000*67
$GPGGA,172243.400,3732.6735,N,12215.9654,W,2,8,1.07,0.2,M,-25.6,M,0000,0000*61
$GPGGA,172243.600,3732.6739,N,12215.9672,W,2,8,1.07,0.0,M,-25.6,M,0000,0000*69
$GPGGA,172243.800,3732.6744,N,12215.9691,W,2,8,1.07,-0.1,M,-25.6,M,0000,0000*4C
$GPGGA,172244.000,3732.6749,N,12215.9709,W,2,8,1.07,-0.3,M,-25.6,M,0000,0000*4C
$GPGGA,172244.200,3732.6754,N,12215.9728,W,2,8,1.07,-0.4,M,-25.6,M,0000,0000*46
$GPGGA,172244.400,3732.6758,N,12215.9746,W,2,8,1.07,-0.5,M,-25.6,M,0000,0000*45
$GPGGA,172244.600,3732.6763,N,12215.9764,W,2,8,1.07,-0.6,M,-25.6,M,0000,0000*4C
$GPGGA,172244.800,3732.6767,N,12215.9783,W,2,8,1.07,-0.7,M,-25.6,M,0000,0000*4E
$GPGGA,172245.000,3732.6772,N,12215.9801,W,2,8,1.07,-0.8,M,-25.6,M,0000,0000*49
$GPGGA,172245.200,3732.6776,N,12215.9819,W,2,8,1.07,-0.9,M,-25.6,M,0000,0000*47
$GPGGA,172245.400,3732.6780,N,12215.9837,W,2,8,1.07,-0.9,M,-25.6,M,0000,0000*44
$GPGGA,172245.600,3732.6784,N,12215.9856,W,2,8,1.07,-1.0,M,-25.6,M,0000,0000*4D
$GPGGA,172245.800,3732.6789,N,12215.9874,W,2,8,1.07,-1.1,M,-25.6,M,0000,0000*4F
$GPGGA,172246.000,3732.6793,N,12215.9894,W,2,9,0.95,-1.2,M,-25.6,M,0000,0000*49
$GPGGA,172246.200,3732.6798,N,12215.9913,W,2,9,0.95,-1.3,M,-25.6,M,0000,0000*4F
$GPGGA,172246.400,3732.6803,N,12215.9932,W,2,9,0.95,-1.3,M,-25.6,M,0000,0000*47
$GPGGA,172246.600,3732.6807,N,12215.9951,W,2,8,1.07,-1.2,M,-25.6,M,0000,0000*4E
$GPGGA,172246.800,3732.6812,N,12215.9970,W,2,8,1.07,-1.3,M,-25.6,M,0000,0000*46
$GPGGA,172247.000,3732.6816,N,12215.9989,W,2,8,1.07,-1.4,M,-25.6,M,0000,0000*4A
$GPGGA,172247.200,3732.6821,N,12216.0008,W,2,8,1.07,-1.4,M,-25.6,M,0000,0000*46
$GPGGA,172247.400,3732.6825,N,12216.0028,W,2,8,1.07,-1.4,M,-25.6,M,0000,0000*46
$GPGGA,172247.600,3732.6829,N,12216.0047,W,2,8,1.07,-1.6,M,-25.6,M,0000,0000*43
$GPGGA,172247.800,3732.6833,N,12216.0065,W,2,8,1.07,-1.9,M,-25.6,M,0000,0000*49
$GPGGA,172248.000,3732.6836,N,12216.0084,W,2,8,1.07,-2.2,M,-25.6,M,0000,0000*4C
$GPGGA,172248.200,3732.6841,N,12216.0103,W,2,8,1.07,-2.3,M,-25.6,M,0000,0000*41
$GPGGA,172248.400,3732.6844,N,12216.0123,W,2,8,1.07,-2.5,M,-25.6,M,0000,0000*46
$GPGGA,172248.600,3732.6848,N,12216.0142,W,2,8,1.07,-2.7,M,-25.6,M,0000,0000*4D
$GPGGA,172248.800,3732.6854,N,12216.0162,W,2,8,1.07,-2.8,M,-25.6,M,0000,0000*43
$GPGGA,172249.000,3732.6859,N,12216.0181,W,2,8,1.07,-3.0,M,-25.6,M,0000,0000*43
$GPGGA,172249.200,3732.6865,N,12216.0200,W,2,8,1.07,-3.0,M,-25.6,M,0000,0000*44
$GPGGA,172249.400,3732.6872,N,12216.0218,W,2,8,1.07,-3.0,M,-25.6,M,0000,0000*4D
$GPGGA,172249.600,3732.6879,N,12216.0235,W,2,8,1.07,-3.0,M,-25.6,M,0000,0000*4B
$GPGGA,172249.800,3732.6885,N,12216.0253,W,2,8,1.07,-3.1,M,-25.6,M,0000,0000*47
$GPGGA,172250.000,3732.6893,N,12216.0271,W,2,8,1.07,-3.1,M,-25.6,M,0000,0000*40
$GPGGA,172250.200,3732.6900,N,12216.0288,W,2,8,1.07,-3.1,M,-25.6,M,0000,0000*4F
$GPGGA,172250.400,3732.6908,N,12216.0306,W,2,8,1.07,-3.0,M,-25.6,M,0000,0000*47
$GPGGA,172250.600,3732.6917,N,12216.0322,W,2,8,1.07,-3.1,M,-25.6,M,0000,0000*4C
$GPGGA,172250.800,3732.6926,N,12216.0337,W,2,8,1.07,-3.1,M,-25.6,M,0000,0000*44
$GPGGA,172251.000,3732.6935,N,12216.0353,W,2,8,1.07,-3.1,M,-25.6,M,0000,0000*4D
$GPGGA,172251.200,3732.6944,N,12216.0369,W,2,9,0.95,-2.9,M,-25.6,M,0000,0000*42
$GPGGA,172251.400,3732.6954,N,12216.0384,W,2,9,0.95,-2.6,M,-25.6,M,0000,0000*49
$GPGGA,172251.600,3732.6964,N,12216.0400,W,2,9,0.95,-2.4,M,-25.6,M,0000,0000*41
$GPGGA,172251.800,3732.6974,N,12216.0414,W,2,8,1.07,-2.3,M,-25.6,M,0000,0000*47
$GPGGA,172252.000,3732.6985,N,12216.0428,W,2,8,1.07,-2.1,M,-25.6,M,0000,0000*4F
$GPGGA,172252.200,3732.6998,N,12216.0441,W,2,8,1.07,-2.0,M,-25.6,M,0000,0000*4F
$GPGGA,172252.400,3732.7011,N,12216.0453,W,2,9,0.95,-2.0,M,-25.6,M,0000,0000*48
$GPGGA,172252.600,3732.7022,N,12216.0465,W,2,9,0.95,-2.0,M,-25.6,M,0000,0000*4F
$GPGGA,172252.800,3732.7034,N,12216.0476,W,2,9,0.95,-2.1,M,-25.6,M,0000,0000*45
$GPGGA,172253.000,3732.7046,N,12216.0487,W,2,8,1.07,-2.0,M,-25.6,M,0000,0000*4D
$GPGGA,172253.200,3732.7058,N,12216.0498,W,2,9,0.95,-2.0,M,-25.6,M,0000,0000*45
$GPGGA,172253.400,3732.7071,N,12216.0509,W,2,9,0.95,-2.0,M,-25.6,M,0000,0000*41
$GPGGA,172253.600,3732.7084,N,12216.0519,W,2,9,0.95,-1.9,M,-25.6,M,0000,0000*42
$GPGGA,172253.800,3732.7097,N,12216.0529,W,2,9,0.95,-1.8,M,-25.6,M,0000,0000*4C
$GPGGA,172254.000,3732.7111,N,12216.0537,W,2,9,0.95,-1.7,M,-25.6,M,0000,0000*4C
$GPGGA,172254.200,3732.7125,N,12216.0545,W,2,9,0.95,-1.7,M,-25.6,M,0000,0000*4C
$GPGGA,172254.400,3732.7139,N,12216.0553,W,2,8,1.07,-1.7,M,-25.6,M,0000,0000*4B
$GPGGA,172254.600,3732.7153,N,12216.0560,W,2,8,1.07,-1.7,M,-25.6,M,0000,0000*45
$GPGGA,172254.800,3732.7166,N,12216.0567,W,2,8,1.07,-1.7,M,-25.6,M,0000,0000*4A
$GPGGA,172255.000,3732.7180,N,12216.0573,W,2,8,1.07,-1.7,M,-25.6,M,0000,0000*4E
$GPGGA,172255.200,3732.7194,N,12216.0579,W,2,8,1.07,-1.7,M,-25.6,M,0000,0000*43
$GPGGA,172255.400,3732.7208,N,12216.0584,W,2,8,1.07,-1.7,M,-25.6,M,0000,0000*41
$GPGGA,172255.600,3732.7222,N,12216.0590,W,2,8,1.07,-1.5,M,-25.6,M,0000,0000*4C
$GPGGA,172255.800,3732.7237,N,12216.0595,W,2,8,1.07,-1.5,M,-25.6,M,0000,0000*43
$GPGGA,172256.000,3732.7252,N,12216.0600,W,2,8,1.07,-1.3,M,-25.6,M,0000,0000*42
$GPGGA,172256.200,3732.7267,N,12216.0604,W,2,8,1.07,-1.1,M,-25.6,M,0000,0000*40
$GPGGA,172256.400,3732.7282,N,12216.0606,W,2,8,1.07,-0.9,M,-25.6,M,0000,0000*46
$GPGGA,172256.600,3732.7297,N,12216.0609,W,2,8,1.07,-0.8,M,-25.6,M,0000,0000*4E
$GPGGA,172256.800,3732.7313,N,12216.0611,W,2,8,1.07,-0.5,M,-25.6,M,0000,0000*49
$GPGGA,172257.000,3732.7328,N,12216.0612,W,2,8,1.07,-0.3,M,-25.6,M,0000,0000*4D
$GPGGA,172257.200,3732.7343,N,12216.0613,W,2,8,1.07,-0.1,M,-25.6,M,0000,0000*41
$GPGGA,172257.400,3732.7359,N,12216.0614,W,2,8,1.07,0.1,M,-25.6,M,0000,0000*66
$GPGGA,172257.600,3732.7374,N,12216.0613,W,2,8,1.07,0.1,M,-25.6,M,0000,0000*6C
$GPGGA,172257.800,3732.7388,N,12216.0612,W,2,9,0.95,0.0,M,-25.6,M,0000,0000*6A
$GPGGA,172258.000,3732.7403,N,12216.0610,W,2,9,0.95,0.0,M,-25.6,M,0000,0000*6B
$GPGGA,172258.200,3732.7418,N,12216.0608,W,2,9,0.93,-0.1,M,-25.6,M,0000,0000*40
$GPGGA,172258.400,3732.7433,N,12216.0606,W,2,9,0.93,-0.1,M,-25.6,M,0000,0000*41
$GPGGA,172258.600,3732.7447,N,12216.0604,W,2,9,0.95,-0.2,M,-25.6,M,0000,0000*47
$GPGGA,172258.800,3732.7461,N,12216.0602,W,2,9,0.95,-0.3,M,-25.6,M,0000,0000*4A
$GPGGA,172259.000,3732.7476,N,12216.0600,W,2,9,0.95,-0.4,M,-25.6,M,0000,0000*40
$GPGGA,172259.200,3732.7490,N,12216.0599,W,2,9,0.95,-0.5,M,-25.6,M,0000,0000*48
$GPGGA,172259.400,3732.7505,N,12216.0597,W,2,9,0.95,-0.5,M,-25.6,M,0000,0000*4D
$GPGGA,172259.600,3732.7519,N,12216.0596,W,2,9,0.95,-0.5,M,-25.6,M,0000,0000*43
$GPGGA,172259.800,3732.7534,N,12216.0595,W,2,9,0.95,-0.4,M,-25.6,M,0000,0000*40
$GPGGA,172300.000,3732.7548,N,12216.0594,W,2,9,0.95,-0.4,M,-25.6,M,0000,0000*4F
$GPGGA,172300.200,3732.7562,N,12216.0593,W,2,9,0.95,-0.3,M,-25.6,M,0000,0000*45
$GPGGA,172300.400,3732.7577,N,12216.0592,W,2,9,0.95,0.1,M,-25.6,M,0000,0000*69
$GPGGA,172300.600,3732.7592,N,12216.0592,W,2,9,0.95,0.2,M,-25.6,M,0000,0000*63
$GPGGA,172300.800,3732.7607,N,12216.0592,W,2,9,0.95,0.2,M,-25.6,M,0000,0000*62
$GPGGA,172301.000,3732.7621,N,12216.0593,W,2,9,0.95,0.3,M,-25.6,M,0000,0000*6F
$GPGGA,172301.200,3732.7635,N,12216.0593,W,2,8,1.07,0.3,M,-25.6,M,0000,0000*63
$GPGGA,172301.400,3732.7649,N,12216.0594,W,2,8,1.07,0.2,M,-25.6,M,0000,0000*68
$GPGGA,172301.600,3732.7662,N,12216.0595,W,2,8,1.07,0.2,M,-25.6,M,0000,0000*62
$GPGGA,172301.800,3732.7676,N,12216.0597,W,2,8,1.07,0.2,M,-25.6,M,0000,0000*6B
$GPGGA,172302.000,3732.7690,N,12216.0600,W,2,9,0.95,0.2,M,-25.6,M,0000,0000*6E
$GPGGA,172302.200,3732.7704,N,12216.0602,W,2,9,0.95,0.2,M,-25.6,M,0000,0000*62
$GPGGA,172302.400,3732.7718,N,12216.0605,W,2,9,0.95,0.1,M,-25.6,M,0000,0000*6D
$GPGGA,172302.600,3732.7732,N,12216.0609,W,2,9,0.95,-0.1,M,-25.6,M,0000,0000*46
$GPGGA,172302.800,3732.7746,N,12216.0613,W,2,8,1.07,-0.2,M,-25.6,M,0000,0000*48
$GPGGA,172303.000,3732.7760,N,12216.0617,W,2,8,1.07,-0.3,M,-25.6,M,0000,0000*40
$GPGGA,172303.200,3732.7773,N,12216.0621,W,2,8,1.07,-0.4,M,-25.6,M,0000,0000*42
$GPGGA,172303.400,3732.7786,N,12216.0626,W,2,8,1.07,-0.5,M,-25.6,M,0000,0000*48
$GPGGA,172303.600,3732.7799,N,12216.0632,W,2,8,1.07,-0.6,M,-25.6,M,0000,0000*42
$GPGGA,172303.800,3732.7812,N,12216.0638,W,2,8,1.07,-0.7,M,-25.6,M,0000,0000*4B
$GPGGA,172304.000,3732.7826,N,12216.0643,W,2,8,1.07,-0.7,M,-25.6,M,0000,0000*4F
$GPGGA,172304.200,3732.7838,N,12216.0649,W,2,8,1.07,-0.8,M,-25.6,M,0000,0000*47
$GPGGA,172304.400,3732.7851,N,12216.0656,W,2,8,1.07,-0.8,M,-25.6,M,0000,0000*40
$GPGGA,172304.600,3732.7862,N,12216.0662,W,2,8,1.07,-0.9,M,-25.6,M,0000,0000*44
$GPGGA,172304.800,3732.7874,N,12216.0669,W,2,8,1.07,-0.9,M,-25.6,M,0000,0000*46
$GPGGA,172305.000,3732.7885,N,12216.0675,W,2,8,1.07,-0.8,M,-25.6,M,0000,0000*4D
$GPGGA,172305.200,3732.7897,N,12216.0682,W,2,8,1.07,-1.0,M,-25.6,M,0000,0000*4D
$GPGGA,172305.400,3732.7907,N,12216.0688,W,2,8,1.07,-1.0,M,-25.6,M,0000,0000*49
$GPGGA,172305.600,3732.7918,N,12216.0694,W,2,8,1.07,-0.9,M,-25.6,M,0000,0000*40
$GPGGA,172305.800,3732.7929,N,12216.0700,W,2,8,1.07,-0.8,M,-25.6,M,0000,0000*41
$GPGGA,172306.000,3732.7939,N,12216.0706,W,2,8,1.07,-0.7,M,-25.6,M,0000,0000*42
$GPGGA,172306.200,3732.7949,N,12216.0712,W,2,8,1.07,-0.7,M,-25.6,M,0000,0000*42
$GPGGA,172306.400,3732.7959,N,12216.0718,W,2,8,1.07,-0.8,M,-25.6,M,0000,0000*40
$GPGGA,172306.600,3732.7968,N,12216.0723,W,2,9,0.95,-0.8,M,-25.6,M,0000,0000*43
$GPGGA,172306.800,3732.7977,N,12216.0729,W,2,9,0.95,-0.8,M,-25.6,M,0000,0000*49
$GPGGA,172307.000,3732.7986,N,12216.0734,W,2,9,0.95,-0.8,M,-25.6,M,0000,0000*42
$GPGGA,172307.200,3732.7994,N,12216.0739,W,2,9,0.95,-0.8,M,-25.6,M,0000,0000*4E
$GPGGA,172307.400,3732.8002,N,12216.0744,W,2,9,0.95,-0.8,M,-25.6,M,0000,0000*4B
$GPGGA,172307.600,3732.8010,N,12216.0748,W,2,9,0.95,-0.8,M,-25.6,M,0000,0000*46
$GPGGA,172307.800,3732.8017,N,12216.0752,W,2,9,0.95,-0.8,M,-25.6,M,0000,0000*44
$GPGGA,172308.000,3732.8024,N,12216.0756,W,2,9,0.95,-0.8,M,-25.6,M,0000,0000*47
$GPGGA,172308.200,3732.8031,N,12216.0760,W,2,9,0.95,-0.7,M,-25.6,M,0000,0000*4B
$GPGGA,172308.400,3732.8037,N,12216.0763,W,2,9,0.95,-0.7,M,-25.6,M,0000,0000*48
$GPGGA,172308.600,3732.8042,N,12216.0766,W,2,9,0.95,-0.7,M,-25.6,M,0000,0000*4D
$GPGGA,172308.800,3732.8047,N,12216.0769,W,2,9,0.95,-0.7,M,-25.6,M,0000,0000*49
$GPGGA,172309.000,3732.8052,N,12216.0772,W,2,9,0.95,-0.7,M,-25.6,M,0000,0000*4E
$GPGGA,172309.200,3732.8056,N,12216.0774,W,2,9,0.95,-0.7,M,-25.6,M,0000,0000*4E
$GPGGA,172309.400,3732.8060,N,12216.0776,W,2,9,0.95,-0.7,M,-25.6,M,0000,0000*4F
$GPGGA,172309.600,3732.8063,N,12216.0778,W,2,9,0.95,-0.7,M,-25.6,M,0000,0000*40
$GPGGA,172309.800,3732.8066,N,12216.0779,W,2,8,1.07,-0.6,M,-25.6,M,0000,0000*40
$GPGGA,172310.000,3732.8068,N,12216.0780,W,2,8,1.07,-0.6,M,-25.6,M,0000,0000*48
$GPGGA,172310.200,3732.8070,N,12216.0781,W,2,8,1.07,-0.6,M,-25.6,M,0000,0000*42
$GPGGA,172310.400,3732.8071,N,12216.0782,W,2,8,1.07,-0.6,M,-25.6,M,0000,0000*46
$GPGGA,172310.600,3732.8072,N,12216.0782,W,2,8,1.07,-0.6,M,-25.6,M,0000,0000*47
$GPGGA,172310.800,3732.8073,N,12216.0783,W,2,8,1.07,-0.6,M,-25.6,M,0000,0000*49
$GPGGA,172311.000,3732.8073,N,12216.0783,W,2,8,1.07,-0.7,M,-25.6,M,0000,0000*41
$GPGGA,172311.200,3732.8073,N,12216.0783,W,2,8,1.07,-0.7,M,-25.6,M,0000,0000*43
$GPGGA,172311.400,3732.8074,N,12216.0784,W,2,8,1.07,-0.8,M,-25.6,M,0000,0000*4A
$GPGGA,172311.600,3732.8074,N,12216.0784,W,2,8,1.07,-1.0,M,-25.6,M,0000,0000*41
$GPGGA,172311.800,3732.8075,N,12216.0784,W,2,8,1.07,-1.3,M,-25.6,M,0000,0000*4D
$GPGGA,172312.000,3732.8077,N,12216.0784,W,2,8,1.07,-1.5,M,-25.6,M,0000,0000*42
$GPGGA,172312.200,3732.8079,N,12216.0785,W,2,8,1.07,-1.7,M,-25.6,M,0000,0000*4D
$GPGGA,172312.400,3732.8081,N,12216.0784,W,2,8,1.07,-1.9,M,-25.6,M,0000,0000*43
$GPGGA,172312.600,3732.8084,N,12216.0783,W,2,8,1.07,-2.0,M,-25.6,M,0000,0000*49
$GPGGA,172312.800,3732.8087,N,12216.0782,W,2,8,1.07,-2.2,M,-25.6,M,0000,0000*47
$GPGGA,172313.000,3732.8090,N,12216.0781,W,2,8,1.07,-2.5,M,-25.6,M,0000,0000*4C
$GPGGA,172313.200,3732.8092,N,12216.0780,W,2,8,1.07,-2.6,M,-25.6,M,0000,0000*4E
$GPGGA,172313.400,3732.8094,N,12216.0778,W,2,8,1.07,-2.9,M,-25.6,M,0000,0000*46
$GPGGA,172313.600,3732.8081,N,12216.0769,W,2,8,1.07,-11.1,M,-25.6,M,0000,0000*7A
$GPGGA,172313.800,3732.8088,N,12216.0769,W,2,8,1.07,-9.7,M,-25.6,M,0000,0000*42
$GPGGA,172314.000,3732.8092,N,12216.0768,W,2,8,1.07,-9.7,M,-25.6,M,0000,0000*47
$GPGGA,172314.200,3732.8095,N,12216.0765,W,2,8,1.07,-9.7,M,-25.6,M,0000,0000*4F
$GPGGA,172314.400,3732.8099,N,12216.0763,W,2,8,1.07,-9.7,M,-25.6,M,0000,0000*43
$GPGGA,172314.600,3732.8103,N,12216.0760,W,2,8,1.07,-9.7,M,-25.6,M,0000,0000*40
$GPGGA,172314.800,3732.8107,N,12216.0756,W,2,8,1.07,-9.7,M,-25.6,M,0000,0000*4F
$GPGGA,172315.000,3732.8111,N,12216.0752,W,2,9,0.95,-9.7,M,-25.6,M,0000,0000*4E
$GPGGA,172315.200,3732.8116,N,12216.0748,W,2,9,0.95,-9.6,M,-25.6,M,0000,0000*41
$GPGGA,172315.400,3732.8120,N,12216.0743,W,2,9,0.95,-9.6,M,-25.6,M,0000,0000*49
$GPGGA,172315.600,3732.8123,N,12216.0738,W,2,9,0.95,-9.5,M,-25.6,M,0000,0000*47
$GPGGA,172315.800,3732.8127,N,12216.0732,W,2,9,0.95,-9.5,M,-25.6,M,0000,0000*47
$GPGGA,172316.000,3732.8130,N,12216.0726,W,2,9,0.95,-9.4,M,-25.6,M,0000,0000*4E
$GPGGA,172316.200,3732.8134,N,12216.0719,W,2,9,0.95,-9.3,M,-25.6,M,0000,0000*43
$GPGGA,172316.400,3732.8138,N,12216.0712,W,2,9,0.95,-9.3,M,-25.6,M,0000,0000*42
$GPGGA,172316.600,3732.8142,N,12216.0704,W,2,9,0.95,-9.2,M,-25.6,M,0000,0000*4B
$GPGGA,172316.800,3732.8145,N,12216.0696,W,2,9,0.95,-9.2,M,-25.6,M,0000,0000*48
$GPGGA,172317.000,3732.8150,N,12216.0688,W,2,9,0.95,-9.1,M,-25.6,M,0000,0000*49
$GPGGA,172317.200,3732.8154,N,12216.0679,W,2,9,0.95,-9.1,M,-25.6,M,0000,0000*41
$GPGGA,172317.400,3732.8158,N,12216.0671,W,2,9,0.95,-9.0,M,-25.6,M,0000,0000*42
$GPGGA,172317.600,3732.8163,N,12216.0661,W,2,9,0.95,-9.0,M,-25.6,M,0000,0000*49
$GPGGA,172317.800,3732.8168,N,12216.0651,W,2,8,1.07,-9.0,M,-25.6,M,0000,0000*44
$GPGGA,172318.000,3732.8173,N,12216.0641,W,2,8,1.07,-8.9,M,-25.6,M,0000,0000*40
$GPGGA,172318.200,3732.8178,N,12216.0631,W,2,8,1.07,-8.9,M,-25.6,M,0000,0000*4E
$GPGGA,172318.400,3732.8184,N,12216.0620,W,2,8,1.07,-8.9,M,-25.6,M,0000,0000*4B
$GPGGA,172318.600,3732.8190,N,12216.0610,W,2,8,1.07,-8.8,M,-25.6,M,0000,0000*4E
$GPGGA,172318.800,3732.8196,N,12216.0599,W,2,8,1.07,-8.8,M,-25.6,M,0000,0000*44
$GPGGA,172319.000,3732.8202,N,12216.0588,W,2,8,1.07,-8.8,M,-25.6,M,0000,0000*43
$GPGGA,172319.200,3732.8208,N,12216.0576,W,2,9,0.95,-8.8,M,-25.6,M,0000,0000*41
$GPGGA,172319.400,3732.8214,N,12216.0564,W,2,9,0.95,-8.7,M,-25.6,M,0000,0000*46
$GPGGA,172319.600,3732.8221,N,12216.0553,W,2,9,0.95,-8.7,M,-25.6,M,0000,0000*46
$GPGGA,172319.800,3732.8228,N,12216.0541,W,2,9,0.95,-8.7,M,-25.6,M,0000,0000*42
$GPGGA,172320.000,3732.8235,N,12216.0529,W,2,9,0.95,-8.7,M,-25.6,M,0000,0000*42
$GPGGA,172320.200,3732.8242,N,12216.0517,W,2,9,0.95,-8.6,M,-25.6,M,0000,0000*4C
$GPGGA,172320.400,3732.8249,N,12216.0504,W,2,9,0.95,-8.6,M,-25.6,M,0000,0000*43
$GPGGA,172320.600,3732.8257,N,12216.0490,W,2,9,0.95,-8.6,M,-25.6,M,0000,0000*42
$GPGGA,172320.800,3732.8264,N,12216.0478,W,2,9,0.95,-8.6,M,-25.6,M,0000,0000*4A
$GPGGA,172321.000,3732.8273,N,12216.0464,W,2,9,0.95,-8.6,M,-25.6,M,0000,0000*48
$GPGGA,172321.200,3732.8281,N,12216.0451,W,2,9,0.95,-8.5,M,-25.6,M,0000,0000*42
$GPGGA,172321.400,3732.8290,N,12216.0439,W,2,9,0.95,-8.2,M,-25.6,M,0000,0000*4D
$GPGGA,172321.600,3732.8299,N,12216.0426,W,2,9,0.95,-8.0,M,-25.6,M,0000,0000*4A
$GPGGA,172321.800,3732.8309,N,12216.0413,W,2,9,0.95,-7.8,M,-25.6,M,0000,0000*4D
$GPGGA,172322.000,3732.8319,N,12216.0400,W,2,9,0.95,-7.7,M,-25.6,M,0000,0000*4A
$GPGGA,172322.200,3732.8328,N,12216.0387,W,2,9,0.95,-7.6,M,-25.6,M,0000,0000*43
$GPGGA,172322.400,3732.8338,N,12216.0373,W,2,9,0.95,-7.4,M,-25.6,M,0000,0000*4D
$GPGGA,172322.600,3732.8347,N,12216.0360,W,2,8,1.23,-7.3,M,-25.6,M,0000,0000*4F
$GPGGA,172322.800,3732.8356,N,12216.0347,W,2,8,1.23,-7.1,M,-25.6,M,0000,0000*46
$GPGGA,172323.000,3732.8366,N,12216.0334,W,2,8,1.23,-7.0,M,-25.6,M,0000,0000*49
$GPGGA,172323.200,3732.8376,N,12216.0321,W,2,8,1.23,-6.9,M,-25.6,M,0000,0000*46
$GPGGA,172323.400,3732.8386,N,12216.0308,W,2,8,1.23,-6.9,M,-25.6,M,0000,0000*44
$GPGGA,172323.600,3732.8397,N,12216.0294,W,2,8,1.23,-7.0,M,-25.6,M,0000,0000*4A
$GPGGA,172323.800,3732.8409,N,12216.0281,W,2,8,1.23,-7.2,M,-25.6,M,0000,0000*42
$GPGGA,172324.000,3732.8420,N,12216.0266,W,2,8,1.23,-7.4,M,-25.6,M,0000,0000*49
$GPGGA,172324.200,3732.8433,N,12216.0252,W,2,8,1.23,-7.6,M,-25.6,M,0000,0000*4C
$GPGGA,172324.400,3732.8445,N,12216.0238,W,2,8,1.23,-7.6,M,-25.6,M,0000,0000*47
$GPGGA,172324.600,3732.8457,N,12216.0223,W,2,8,1.23,-7.7,M,-25.6,M,0000,0000*4D
$GPGGA,172324.800,3732.8469,N,12216.0209,W,2,8,1.23,-7.7,M,-25.6,M,0000,0000*46
$GPGGA,172325.000,3732.8481,N,12216.0195,W,2,8,1.23,-8.0,M,-25.6,M,0000,0000*47
$GPGGA,172325.200,3732.8492,N,12216.0181,W,2,8,1.23,-8.1,M,-25.6,M,0000,0000*43
$GPGGA,172325.400,3732.8505,N,12216.0168,W,2,8,1.23,-8.3,M,-25.6,M,0000,0000*4F
$GPGGA,172325.600,3732.8517,N,12216.0154,W,2,8,1.23,-8.1,M,-25.6,M,0000,0000*43
$GPGGA,172325.800,3732.8530,N,12216.0140,W,2,9,0.95,-8.1,M,-25.6,M,0000,0000*40
$GPGGA,172326.000,3732.8542,N,12216.0126,W,2,9,0.95,-8.0,M,-25.6,M,0000,0000*4F
$GPGGA,172326.200,3732.8554,N,12216.0112,W,2,9,0.95,-7.7,M,-25.6,M,0000,0000*45
$GPGGA,172326.400,3732.8567,N,12216.0097,W,2,9,0.95,-7.7,M,-25.6,M,0000,0000*4F
$GPGGA,172326.600,3732.8579,N,12216.0083,W,2,9,0.95,-7.6,M,-25.6,M,0000,0000*46
$GPGGA,172326.800,3732.8591,N,12216.0069,W,2,9,0.95,-7.5,M,-25.6,M,0000,0000*49
$GPGGA,172327.000,3732.8604,N,12216.0054,W,2,9,0.95,-7.7,M,-25.6,M,0000,0000*43
$GPGGA,172327.200,3732.8616,N,12216.0040,W,2,9,0.95,-7.9,M,-25.6,M,0000,0000*49
$GPGGA,172327.400,3732.8628,N,12216.0025,W,2,8,1.23,-8.1,M,-25.6,M,0000,0000*4B
$GPGGA,172327.600,3732.8640,N,12216.0011,W,2,8,1.23,-8.2,M,-25.6,M,0000,0000*43
$GPGGA,172327.800,3732.8652,N,12215.9996,W,2,8,1.23,-8.2,M,-25.6,M,0000,0000*42
$GPGGA,172328.000,3732.8664,N,12215.9981,W,2,8,1.23,-8.2,M,-25.6,M,0000,0000*46
$GPGGA,172328.200,3732.8676,N,12215.9965,W,2,8,1.23,-8.2,M,-25.6,M,0000,0000*4D
$GPGGA,172328.400,3732.8687,N,12215.9950,W,2,8,1.23,-8.2,M,-25.6,M,0000,0000*43
$GPGGA,172328.600,3732.8698,N,12215.9935,W,2,8,1.20,-8.1,M,-25.6,M,0000,0000*4C
$GPGGA,172328.800,3732.8709,N,12215.9920,W,2,8,1.23,-8.1,M,-25.6,M,0000,0000*4C
$GPGGA,172329.000,3732.8719,N,12215.9905,W,2,8,1.23,-8.1,M,-25.6,M,0000,0000*43
$GPGGA,172329.200,3732.8730,N,12215.9889,W,2,8,1.23,-8.0,M,-25.6,M,0000,0000*4E
$GPGGA,172329.400,3732.8740,N,12215.9873,W,2,8,1.23,-8.0,M,-25.6,M,0000,0000*4A
$GPGGA,172329.600,3732.8751,N,12215.9857,W,2,8,1.23,-8.0,M,-25.6,M,0000,0000*4E
$GPGGA,172329.800,3732.8761,N,12215.9840,W,2,8,1.23,-8.1,M,-25.6,M,0000,0000*44
$GPGGA,172330.000,3732.8772,N,12215.9824,W,2,8,1.23,-8.1,M,-25.6,M,0000,0000*44
$GPGGA,172330.200,3732.8782,N,12215.9807,W,2,8,1.23,-8.1,M,-25.6,M,0000,0000*48
$GPGGA,172330.400,3732.8793,N,12215.9791,W,2,9,0.95,-8.0,M,-25.6,M,0000,0000*42
$GPGGA,172330.600,3732.8804,N,12215.9774,W,2,9,0.95,-8.0,M,-25.6,M,0000,0000*4A
$GPGGA,172330.800,3732.8814,N,12215.9757,W,2,9,0.95,-7.9,M,-25.6,M,0000,0000*42
$GPGGA,172331.000,3732.8826,N,12215.9740,W,2,9,0.95,-7.7,M,-25.6,M,0000,0000*42
$GPGGA,172331.200,3732.8836,N,12215.9724,W,2,9,0.95,-7.5,M,-25.6,M,0000,0000*41
$GPGGA,172331.400,3732.8846,N,12215.9707,W,2,9,0.95,-7.3,M,-25.6,M,0000,0000*47
$GPGGA,172331.600,3732.8856,N,12215.9690,W,2,9,0.95,-7.2,M,-25.6,M,0000,0000*4A
